lat,lon,Name,type,comparison
47.3865664,8.5165256,Tonhalle Maag,TOURIST_THEATRE,2.0
47.3863155,8.516726400000001,LY'S Asia Maag-Areal,FOOD_RESTAURANT,3.0
47.3865335,8.516322500000001,Billettkasse der Tonhalle-Gesellschaft Zürich,SHOP_KIOSK,3.0
47.3863719,8.516976099999999,LY'S Asia Take-Away Maag-Areal,FOOD_FASTFOOD,3.3166247903554
47.3867624,8.515851800000002,Velocity,SPORT_LEISURECENTER,3.3166247903554
47.3858089,8.516573900000001,Coop Maagplatz,SHOP_SUPERMARKET,4.123105625617661
47.3869001,8.517045300000001,Maag MusicHall,TOURIST_THEATRE,4.242640687119285
47.3859677,8.516197199999999,EY Restaurant Platform,FOOD_RESTAURANT,4.242640687119285
47.3860207,8.5171884,Clouds,FOOD_BAR,4.358898943540674
47.3863467,8.5176851,Coop Pronto Prime Tower,SHOP_CONVENIENCE,4.795831523312719
47.386283899999995,8.5174558,Hotel Rivington & Sons,FOOD_BAR,4.898979485566356
47.3859984,8.5174066,ZKB Prime Tower,MONEY_BANK,4.898979485566356
47.3873727,8.5161725,Living Sculptures,SHOP_DEPARTMENTSTORE,5.0990195135927845
47.38589810000001,8.517719999999999,Marronistand,FOOD_FASTFOOD,5.47722557505166
47.387684,8.5154378,PerfectHair,SHOP_HAIRDRESSER,5.744562646538029
47.3853185,8.517223800000002,k kiosk Bahnhof Hardbrücke,SHOP_KIOSK,6.4031242374328485
47.3852748,8.517187400000001,Brezelkönig,SHOP_BAKERY,6.708203932499369
47.385076,8.516863699999998,Bahnhof Hardbrücke,TRANSPORT_TRAMSTOP,6.782329983125267
47.38527070000001,8.5172996,Bahnhof Hardbrücke,TRANSPORT_TRAMSTOP,6.782329983125267
47.3854706,8.5174484,Hitzberger Hardbrücke,FOOD_FASTFOOD,6.782329983125267
47.3851609,8.517392599999999,Zürich Hardbrücke,TRANSPORT_STATION,6.855654600401044
47.3851003,8.5174153,Zürich Hardbrücke,TRANSPORT_STATION,6.855654600401044
47.385186499999996,8.5174661,Zürich Hardbrücke,TRANSPORT_STATION,7.0
47.3859148,8.5181705,Helsinki,TOURIST_NIGHTCLUB,7.0
47.3852635,8.5175161,Zürich Hardbrücke,TRANSPORT_STATION,7.211102550927977
47.3850125,8.5173571,Zürich Hardbrücke,TRANSPORT_STATION,7.874007874011811
47.3859531,8.5182895,Zum Gaul,FOOD_RESTAURANT,8.18535277187245
47.388198700000004,8.517584300000001,Lilly Jo,FOOD_RESTAURANT,10.908712114635714
47.3888501,8.517602400000001,Foifi,FOOD_CAFE,11.224972160321824
47.38887620000001,8.5175844,Foifi,SHOP_CONVENIENCE,11.357816691600547
47.38912120000001,8.5166058,novotelcafe,FOOD_BAR,11.61895003862225
47.38916079999999,8.516630900000001,novotelcafe,FOOD_RESTAURANT,11.6619037896906
47.3891361,8.5167438,Novotel Zürich City West,ACCOMMO_HOTEL,11.74734012447073
47.3885658,8.517261300000001,Fächerei,SHOP_DEPARTMENTSTORE,11.789826122551597
47.388998799999996,8.5183451,Moods (im Schiffbau),TOURIST_NIGHTCLUB,11.789826122551597
47.3890206,8.517057800000002,Ibis Zürich City West,ACCOMMO_HOTEL,11.874342087037913
47.3889729,8.516186,Ibis Budget Zürich City West,ACCOMMO_HOTEL,11.916375287812984
47.3889894,8.5154773,Technopark,TRANSPORT_TRAMSTOP,12.083045973594572
47.3924824,8.5218918,Wipkingerpark,LANDUSE_GRASS,12.529964086141668
47.389159,8.515056199999998,Technopark,TRANSPORT_TRAMSTOP,12.529964086141668
47.3891509,8.5177829,Aubrey,FOOD_RESTAURANT,12.529964086141668
47.385689899999996,8.518467999999999,Bogen 33,SHOP_CLOTHES,12.688577540449518
47.3907031,8.5183213,Coop Puls 5,SHOP_SUPERMARKET,12.688577540449518
47.3900555,8.517909800000002,Toscano im Puls 5,FOOD_RESTAURANT,12.84523257866513
47.3901264,8.517954800000002,Café & Bar Toscano,FOOD_CAFE,13.07669683062202
47.390581,8.517465699999999,Hitzberger Puls 5,FOOD_FASTFOOD,13.07669683062202
47.3903761,8.5181135,K5 Coiffeur,SHOP_HAIRDRESSER,13.07669683062202
47.390332,8.5180855,ease Design Spa,SHOP_HAIRDRESSER,13.07669683062202
47.390283000000004,8.518054300000001,eiweiss,SHOP_ALCOHOL,13.07669683062202
47.3906611,8.5175282,k kiosk Puls 5,SHOP_KIOSK,13.07669683062202
47.390506200000004,8.5174073,Hokkaido,FOOD_RESTAURANT,13.07669683062202
47.390205,8.518004800000002,Oakley,SHOP_CLOTHES,13.114877048603999
47.3927449,8.5200582,Bär,TOURIST_ART,13.152946437965904
47.3907831,8.5174663,BW Mode,SHOP_CLOTHES,13.19090595827292
47.3904158,8.5173368,Noodle House,FOOD_FASTFOOD,13.19090595827292
47.3902919,8.517240199999998,Angkor,FOOD_RESTAURANT,13.19090595827292
47.389853,8.5167349,Turbinenplatz,SHOP_BICYCLE,13.527749258468685
47.3876218,8.5190395,ApoDoc,HEALTH_DOCTORS,13.85640646055102
47.3875609,8.5190573,Café Medici,FOOD_CAFE,14.142135623730953
47.3922599,8.522864300000002,"Fachschule Viventa, Schulhaus Wipkingen",EDUCATION_SCHOOL,14.2828568570857
47.3875997,8.5190909,ApoDoc,HEALTH_PHARMACY,14.2828568570857
47.3901151,8.5151409,Villaggio,FOOD_RESTAURANT,14.31782106327635
47.392244500000004,8.517350500000001,Förrlibuckstrasse,TRANSPORT_TRAMSTOP,14.7648230602334
47.3878633,8.5186448,Les Halles,FOOD_RESTAURANT,14.866068747318506
47.387563899999996,8.519388099999999,Schiffbau,TRANSPORT_TRAMSTOP,14.89966442575134
47.388183700000006,8.519525699999999,Exil,TOURIST_NIGHTCLUB,14.966629547095765
47.3854018,8.5183169,Rosso,FOOD_RESTAURANT,15.329709716755893
47.3930264,8.5201208,GZ Wipkingen,AMENITY_PLAYGROUND,15.620499351813306
47.388126,8.5190788,Best,TRANSPORT_RENTALCAR,15.716233645501713
47.387293799999995,8.5195329,Big Ben Westside Pub,FOOD_PUB,15.748015748023622
47.387831299999995,8.5189366,Brisket,FOOD_RESTAURANT,15.748015748023622
47.3925557,8.522819300000002,Kreisbüro 10,AMENITY_TOWNHALL,15.874507866387546
47.386787299999995,8.5193299,Zürcher Kantonalbank,MONEY_BANK,16.15549442140351
47.392499,8.5237299,Wipkingerplatz,TRANSPORT_TRAMSTOP,16.18641405623865
47.390192600000006,8.514678100000001,Herrmann's,SHOP_LAUNDRETTE,16.340134638368188
47.39247750000001,8.5245441,Kiosk Papillon,SHOP_KIOSK,16.340134638368188
47.3916745,8.5249713,NumberOne Actiongear,SHOP_CLOTHES,16.3707055437449
47.3878908,8.519756,Schiffbau,TRANSPORT_TRAMSTOP,16.401219466856727
47.392424299999995,8.524588099999999,Apotheke Drogerie am Wipkingerplatz,HEALTH_PHARMACY,16.492422502470642
47.393033700000004,8.5197395,Kafi Tintefisch,FOOD_CAFE,16.492422502470642
47.392523499999996,8.5245187,Coop Wipkingerbrücke,SHOP_SUPERMARKET,16.522711641858304
47.3931178,8.5199406,Gemeinschaftszentrum Wipkingen,TOURIST_THEATRE,16.55294535724685
47.3906821,8.5149569,Digitec Galaxus,SHOP_HIFI,16.643316977093242
47.3931636,8.521016900000001,Grüntal,FOOD_RESTAURANT,16.673332000533062
47.3926467,8.523384199999999,Wipkingerplatz,TRANSPORT_TRAMSTOP,16.792855623746664
47.39312279999999,8.522114300000002,Postagentur 8037 Zürich Breitensteinstrasse,AMENITY_POSTOFFICE,16.881943016134137
47.3874578,8.5196965,Escher Wyss Döner,FOOD_FASTFOOD,16.911534525287767
47.393144299999996,8.5219634,26 Rose Garden,FOOD_CAFE,17.11724276862369
47.3915816,8.5251298,Mediterraneo,FOOD_RESTAURANT,17.262676501632072
47.392756799999994,8.5246421,Cafe Roeschibach,FOOD_RESTAURANT,17.578395831246947
47.3915376,8.5252133,Uhren & Goldschmiedatelier Costalunga,SHOP_JEWELRY,17.578395831246947
47.3875322,8.519770699999999,New Point,FOOD_FASTFOOD,17.804493814764854
47.39160510000001,8.5258501,Sozialzentrum Hönggerstrasse,AMENITY_PUBLICBUILDING,17.916472867168913
47.39288270000001,8.5239707,Postfachanlage 8037 Zürich 37 Wipkingen,AMENITY_POSTOFFICE,17.944358444926365
47.3923487,8.5170775,Förrlibuckstrasse,TRANSPORT_TRAMSTOP,18.05547008526779
47.391959299999996,8.5269784,Zivilschutzmuseum,TOURIST_MUSEUM,18.841443681416774
47.393100200000006,8.524980000000001,revamp-it,SHOP_COMPUTER,19.364916731037084
47.3933532,8.524303100000001,Fresh Orient,FOOD_FASTFOOD,19.621416870348586
47.3934033,8.524429300000001,Kiosk Rosengarten,SHOP_KIOSK,19.697715603592208
47.3919255,8.5271399,Zwei Löwen,TOURIST_ART,19.824227601599013
47.3920151,8.5272074,Landenberganlage,AMENITY_PLAYGROUND,19.849433241279208
47.392106299999995,8.5270925,Rotkäppchen,TOURIST_ART,19.8997487421324
47.3934503,8.5249347,Smide,SHOP_BICYCLE,20.12461179749811
47.387896500000004,8.520228,Jumbo,SHOP_DIY,20.174241001832016
47.3912192,8.514809800000002,Abteilung Spezial,AMENITY_POLICE,20.46948949045872
47.3875069,8.5206272,Industriequartier,POI_SUBURB,20.952326839756967
47.3922485,8.5274561,Landenbergpark,LANDUSE_GRASS,21.679483388678797
47.3856831,8.5193845,Freitag Turm,POI_TOWERLOOKOUT,21.702534414210707
47.385560399999996,8.519304199999999,Making Things II,SHOP_CLOTHES,21.86321110907545
47.3855079,8.519273,Print Matters,SHOP_CLOTHES,22.13594362117865
47.38515870000001,8.5186586,Heilsarmee Brockenhaus,SHOP_CLOTHES,22.538855339169288
47.3856858,8.519441800000001,Freitag Store,SHOP_CLOTHES,22.64950330581225
47.391096999999995,8.526957699999999,Garage Konrad AG,SHOP_CARREPAIR,22.781571499789035
47.391139,8.5267589,Discount-Tankstelle,TRANSPORT_FUEL,22.912878474779202
47.38549860000001,8.519285400000001,Gerolds Markt,SHOP_MARKETPLACE,23.021728866442675
47.3825446,8.5163356,Schule Hard,EDUCATION_SCHOOL,23.430749027719962
47.3910244,8.526532000000001,Taj Palace,FOOD_RESTAURANT,23.62202362203543
47.3931826,8.5260414,Kindergarten Habsburgstrasse,EDUCATION_NURSERY,24.0
47.39328560000001,8.5256645,Hägeli Orthopädie,SHOP_DEPARTMENTSTORE,24.392621835300933
47.3596981,8.5480603,Johan Jacobs Museum,TOURIST_MUSEUM,24.474476501040836
47.3856511,8.5196211,ViCafe Gerold,FOOD_CAFE,25.592967784139447
47.3933515,8.5263104,Damas,FOOD_RESTAURANT,25.612496949731394
47.385169,8.5190628,Frau Gerolds Garten,FOOD_RESTAURANT,26.589471600616665
48.893628899999996,2.3863015,Espace chapiteaux,TOURIST_FOUNTAIN,26.79552201394852
51.156057399999995,14.981748999999999,Hildegard-Burjan-Platz,LANDUSE_GRASS,27.0
51.1561174,14.9816964,Metallkugel,TOURIST_ART,27.184554438136374
47.3856093,8.5196778,Soeder*,SHOP_DEPARTMENTSTORE,27.54995462791182
51.1565291,14.9849082,Jägerkaserne,TRANSPORT_TRAMSTOP,27.60434748368452
51.157183700000004,14.982934400000001,Autohaus Stöckel,SHOP_CAR,27.622454633866266
51.3336415,12.3243429,Henriettenstraße,TRANSPORT_TRAMSTOP,27.71281292110204
48.1437816,11.535082000000001,Döner,FOOD_FASTFOOD,27.802877548915692
47.98750689999999,7.842452900000001,IYENGAR Yoga Schule Freiburg,SPORT_LEISURECENTER,27.87471972953271
47.393330299999995,8.5285254,Antea,SHOP_HAIRDRESSER,28.03569153775237
47.393330999999996,8.528452699999999,Belmondo,FOOD_CAFE,28.03569153775237
51.156254600000004,14.984859900000002,Jägerkaserne,TRANSPORT_TRAMSTOP,28.071337695236398
47.3930599,8.5285694,Rotbuch Apotheke,HEALTH_PHARMACY,28.08914381037628
47.3850927,8.519158099999999,Gerolds Markt,SHOP_CLOTHES,28.195744359743372
47.3608803,8.5478901,Ristorante Frascati,FOOD_RESTAURANT,28.26658805020514
47.3933528,8.528801800000002,Madal Bal,SHOP_CONVENIENCE,28.319604517012596
47.3930762,8.529228100000001,Kleiner Wipkingen,SHOP_BAKERY,28.33725463060951
51.3334787,12.3243874,INO Café,FOOD_CAFE,28.33725463060951
47.3927934,8.530478500000001,Osteria Centrale,FOOD_RESTAURANT,28.390139133156783
47.3932877,8.5288793,Röschibachplatz,TOURIST_FOUNTAIN,28.46049894151541
51.154600099999996,14.983761800000002,Cafe Seiler,FOOD_CAFE,28.478061731796284
47.4129533,8.5544989,Sektor 11,TOURIST_NIGHTCLUB,28.548204847240395
51.1553995,14.9841285,Ristorante Da Vinci,FOOD_RESTAURANT,28.5657137141714
51.1539676,14.9840459,Theater-Klause,FOOD_BIERGARTEN,28.670542373662897
51.7625302,14.3267095,Galenus-Apotheke,HEALTH_PHARMACY,28.70540018881465
50.0464778,19.955576899999997,Kawiarnia lwowska,FOOD_CAFE,28.79236009777593
51.1541001,14.9837267,Salon Sibylle,SHOP_HAIRDRESSER,28.80972058177587
47.3930555,8.5293157,Zürich Wipkingen,TRANSPORT_STATION,28.80972058177587
51.1538461,14.9842158,Tabakwaren & Spirituosen,SHOP_ALCOHOL,28.844410203711917
51.1550885,14.9840666,Zum Spundloch,FOOD_RESTAURANT,28.98275349237888
51.1540365,14.9838496,Bürosysteme Theurich,SHOP_COMPUTER,29.03446228191595
51.1540112,14.9839117,Theater Klause,FOOD_RESTAURANT,29.03446228191595
51.1542374,14.9834783,Haus der Schönheit,SHOP_HAIRDRESSER,29.068883707497267
50.0449019,19.9530212,Bar mleczny Krakus,FOOD_RESTAURANT,29.086079144497965
51.7619061,14.3310665,Stadthalle,TRANSPORT_TRAMSTOP,29.13760456866693
51.153761100000004,14.985270499999999,Gerhart Hauptmann-Theater,TOURIST_THEATRE,29.24038303442689
51.7613172,14.333447,Herrenausstatter,SHOP_CLOTHES,29.24038303442689
51.76245150000001,14.326402599999998,Copyworxx - Copyshop,SHOP_COPYSHOP,29.27456233660889
47.3928862,8.530350199999999,Letten,FOOD_CAFE,29.27456233660889
47.3929973,8.529352900000001,Bahnhofreisebüro Wipkingen,SHOP_DEPARTMENTSTORE,29.29163703175362
51.154582399999995,14.984817300000001,Kaisertrutz,TOURIST_MUSEUM,29.308701779505693
51.7618547,14.3315805,Japanischer Pavillion,TOURIST_ATTRACTION,29.393876913398138
51.1537453,14.984496300000002,"Bio Markt ""Der grüne Laden""",SHOP_CONVENIENCE,29.47880594596735
51.1536151,14.9847737,Tinte & Toner,SHOP_COPYSHOP,29.512709126747406
50.044954600000004,19.953622600000006,carrefour express,SHOP_CONVENIENCE,29.58039891549808
51.7611576,14.333465200000001,Oblomov Teefachgeschäft,SHOP_DEPARTMENTSTORE,29.614185789921688
51.152694,14.9845256,Justizvollzugsanstalt Görlitz,AMENITY_PRISON,29.631064780058107
51.1534919,14.9850587,Antalya 2,FOOD_FASTFOOD,29.631064780058107
51.761512700000004,14.331327499999999,Friede unserem Lande ...,TOURIST_MEMORIAL,29.715315916207253
51.1537664,14.984113800000001,Tschanter,SHOP_BAKERY,29.782545223670866
51.7620159,14.3302513,Stadthalle,TOURIST_THEATRE,29.79932885150268
51.7620753,14.3337721,Klosterkeller,FOOD_RESTAURANT,29.816103031751148
51.154387799999995,14.9853964,Demianidenkmal,TOURIST_MEMORIAL,29.8496231131986
51.761641299999994,14.333467,Klosterkirche,POW_CHRISTIAN,29.8496231131986
51.1545596,14.985278,Platz des 17. Juni,TOURIST_FOUNTAIN,29.916550603303186
51.1534226,14.9852143,Blumenhaus Am Theater,SHOP_FLORIST,29.93325909419153
51.153301899999995,14.985458300000001,Repro Profi,SHOP_COPYSHOP,30.01666203960727
51.7612218,14.332449800000004,Rays Catering R. Marchelski,FOOD_FASTFOOD,30.01666203960727
48.143809499999996,11.5357228,Edeka,SHOP_SUPERMARKET,30.13303834663873
51.1519497,14.985945000000001,Postplatz,TOURIST_FOUNTAIN,30.14962686336267
51.76231470000001,14.3270193,Interfood Basar - Asiatische Lebensmittel,SHOP_SUPERMARKET,30.199337741083003
50.0445454,19.952394899999998,Master-Serwis,SHOP_HIFI,30.265491900843116
51.1523444,14.9851625,Landgericht,AMENITY_COURT,30.28200785945344
47.36038129999999,8.5499209,Lady's First,ACCOMMO_HOTEL,30.298514815086232
51.1530684,14.986505,Demianiplatz,TRANSPORT_TRAMSTOP,30.331501776206203
51.761675,14.3301399,Stadthalle Cottbus,TOURIST_THEATRE,30.36445290137795
47.393359999999994,8.529474,Nordbrücke,FOOD_RESTAURANT,30.44667469527666
51.7614275,14.329253699999999,Sparkasse Spree Neiße,MONEY_BANK,30.479501308256346
51.7620111,14.329067000000002,Edeka,SHOP_SUPERMARKET,30.51229260478471
51.1534185,14.9861604,Bibliothek des Senckenberg Museums für Naturkunde,AMENITY_LIBRARY,30.545048698602532
51.761522899999996,14.329418400000002,Wunderbar,FOOD_RESTAURANT,30.56141357987225
50.04464160000001,19.952402600000006,Sklep Górski,SHOP_DIY,30.577769702841312
51.151844200000006,14.986866599999999,Deutsche Post,AMENITY_POSTOFFICE,30.577769702841312
51.7619915,14.328713800000001,Spree-Galerie,SHOP_SUPERMARKET,30.62678566222711
51.1529995,14.9860533,Style Lines,SHOP_HAIRDRESSER,30.62678566222711
51.763504,14.3355696,Spreeschule,EDUCATION_SCHOOL,30.659419433511786
51.1528967,14.9860714,Lolos Cafe & Bar,FOOD_CAFE,30.659419433511786
51.1523042,14.986279199999998,Dreißig,SHOP_BAKERY,30.692018506445606
51.76141,14.3254161,DEMATH,SHOP_COMPUTER,30.692018506445606
50.04487879999999,19.951155899999996,Sklep - artykuły metalowe,SHOP_DIY,30.708305065568176
48.1454846,11.5390043,Novotel München City Arnulfpark,ACCOMMO_HOTEL,30.708305065568176
51.761638500000004,14.3292857,Mayer's Markenschuhe,SHOP_SHOES,30.724582991474428
51.761678700000004,14.3291848,Presse Shop,SHOP_KIOSK,30.724582991474428
51.7619929,14.3285164,Reformhaus Kaffner,SHOP_CONVENIENCE,30.724582991474428
51.762259,14.3295407,Lindner Congress Hotel Cottbus,ACCOMMO_HOTEL,30.7408522978788
50.044430299999995,19.9520986,Manzana,FOOD_RESTAURANT,30.757112998459398
47.393367,8.5305085,The Pie Shop,FOOD_RESTAURANT,30.77336510685824
51.7616572,14.3305908,CottbusService,TOURIST_INFORMATION,30.77336510685824
51.7617659,14.329204,Street One,SHOP_CLOTHES,30.85449724108302
51.150818799999996,14.9878575,Alt Görlitz,ACCOMMO_HOTEL,30.85449724108302
51.761532,14.3279978,Sparda-Bank,MONEY_BANK,30.870698080866266
51.151459700000004,14.9861988,Hirsch-Apotheke,HEALTH_PHARMACY,30.870698080866266
51.1529115,14.9862035,Bumüller Back,SHOP_BAKERY,30.870698080866266
51.7617324,14.329282699999998,Lausitzer Reisebüro,SHOP_DEPARTMENTSTORE,30.870698080866266
47.9860539,7.8497928,RADBOX,SHOP_BICYCLE,30.886890422961002
51.1529343,14.986875099999999,Demianiplatz,TRANSPORT_TRAMSTOP,30.903074280724894
51.1525217,14.986856099999999,Florizz,SHOP_FLORIST,30.903074280724894
51.1530817,14.9867125,China Imbiss,FOOD_FASTFOOD,30.903074280724894
51.151680999999996,14.9867861,Postbank,MONEY_BANK,30.919249667480607
51.7609451,14.3338732,Café Lucie,FOOD_CAFE,30.919249667480607
51.7609894,14.3296986,Hauptpost,AMENITY_POSTOFFICE,30.951575081084318
50.04468370000001,19.950857199999998,UP Kraków 77,AMENITY_POSTOFFICE,30.96772513440405
51.7609299,14.333473699999999,Franky's American Diner,FOOD_RESTAURANT,30.96772513440405
51.151502799999996,14.9859711,Reformhaus Bio Point,SHOP_CONVENIENCE,30.98386676965934
48.14381229999999,11.5357986,Ihle,FOOD_CAFE,30.98386676965934
51.152888,14.9862674,Kontur,SHOP_HAIRDRESSER,31.0
51.15219860000001,14.986711999999999,Leiser,SHOP_SHOES,31.0
51.7619081,14.3288003,Mäc Geiz,SHOP_CONVENIENCE,31.0
51.761556799999994,14.33097,Stadthalle,TRANSPORT_TRAMSTOP,31.0
51.7616572,14.327097,Redo XXL Cottbus,FOOD_RESTAURANT,31.0
51.1527889,14.986524,Frühauf,FOOD_RESTAURANT,31.01612483854165
51.152817299999995,14.986432699999998,La Gondola,FOOD_CAFE,31.01612483854165
47.385503899999996,8.5199443,Supermarket,TOURIST_NIGHTCLUB,31.048349392520052
51.1528699,14.9863413,Schuhhaus Erika,SHOP_SHOES,31.06444913401813
51.1523859,14.9859611,Sparda-Bank,MONEY_BANK,31.08054053584011
51.1512517,14.986115599999998,Lukullus,SHOP_GIFT,31.08054053584011
51.7620463,14.328367300000002,Kindermoden u. Lederwaren,SHOP_CLOTHES,31.096623610932426
51.7617158,14.3291032,Apollo,SHOP_DEPARTMENTSTORE,31.096623610932426
51.7610631,14.3323732,HypoVereinsbank,MONEY_BANK,31.096623610932426
51.7617839,14.328872199999998,Müller,SHOP_CONVENIENCE,31.128764832546764
51.7615263,14.3281821,Stilecht,SHOP_DEPARTMENTSTORE,31.16087290176577
51.761505799999995,14.3300859,Berliner Platz,TOURIST_FOUNTAIN,31.192947920964446
47.3936485,8.529543499999999,Coop Scheffelstrasse,SHOP_SUPERMARKET,31.192947920964446
51.1513721,14.986614499999998,Uhren Schmuck Geschenke Viktoria Palme,SHOP_JEWELRY,31.192947920964446
47.393402,8.530210400000001,Jeisy,SHOP_JEWELRY,31.192947920964446
50.044219,19.951274100000006,Galeria Starmach,SHOP_DEPARTMENTSTORE,31.20897306865447
51.7612203,14.3297049,Stadthalle,TRANSPORT_TRAMSTOP,31.20897306865447
51.76205820000001,14.32825,Mobilcom Debitel,SHOP_PHONE,31.20897306865447
51.1523249,14.988266099999999,Tedi,SHOP_CONVENIENCE,31.224989991991986
51.761411700000004,14.328726800000002,Sparkasse,MONEY_BANK,31.224989991991986
51.1523927,14.988277100000001,City Center,SHOP_SUPERMARKET,31.224989991991986
51.1524566,14.9867946,Bären-Apotheke,HEALTH_PHARMACY,31.240998703626612
51.1527131,14.986385199999999,Charlottes Löffelstübchen,FOOD_FASTFOOD,31.240998703626612
51.76181939999999,14.3287932,Mc Shirt,SHOP_CLOTHES,31.256999216175572
51.7623437,14.3279314,Technisches Rathaus Cottbus,AMENITY_TOWNHALL,31.256999216175572
51.1526658,14.986870699999999,Wiener Feinbäckerei,SHOP_BAKERY,31.304951684997054
51.761880100000006,14.328918900000001,Ristorante Milano,FOOD_RESTAURANT,31.320919526731647
51.15382,14.986368599999999,Augustum-Annen-Gymnasium,EDUCATION_SCHOOL,31.320919526731647
51.7618385,14.3290041,Intersport,SHOP_MOTORCYCLE,31.320919526731647
47.3933311,8.5308039,Sorbetto ice-cream!,FOOD_ICECREAM,31.368774282716245
51.761719799999995,14.328171900000001,Umlauf,SHOP_HAIRDRESSER,31.368774282716245
51.761632299999995,14.3283736,Tedi,SHOP_CONVENIENCE,31.368774282716245
51.1531935,14.986791199999999,Deutsche Bank,MONEY_BANK,31.38470965295043
51.152421000000004,14.9874473,Frauenkirche,POW_CHRISTIAN,31.38470965295043
48.8954586,2.3835535,Hypercacher,SHOP_SUPERMARKET,31.38470965295043
51.1523149,14.986784599999998,Haar Profis,SHOP_HAIRDRESSER,31.40063693621516
51.7618703,14.3285437,Apotheke in der Spree Galerie,HEALTH_PHARMACY,31.40063693621516
51.7617837,14.3287131,Tedi,SHOP_CONVENIENCE,31.40063693621516
51.7621192,14.3279443,Floralia Blatt & Blüte,SHOP_FLORIST,31.416556144810013
51.1527237,14.986691699999998,dm,SHOP_CONVENIENCE,31.416556144810013
51.1526516,14.9867076,Homilius,SHOP_BUTCHER,31.416556144810013
51.7617555,14.3284063,Sanitätshaus Seidel,SHOP_DEPARTMENTSTORE,31.416556144810013
48.142813000000004,11.5365181,Donnersbergerbrücke,TRANSPORT_STATION,31.416556144810013
51.7617954,14.3282568,Goethe Studio,SHOP_DEPARTMENTSTORE,31.416556144810013
51.1522345,14.9881217,Skribo,SHOP_COPYSHOP,31.432467291003427
51.76208629999999,14.328115200000001,Ringfoto Britze,SHOP_DEPARTMENTSTORE,31.44837038703277
48.1439162,11.535722900000001,Vinzenz Murr,SHOP_BUTCHER,31.48015247739439
51.761951,14.3282331,Pink,SHOP_DEPARTMENTSTORE,31.496031496047245
51.761992600000006,14.328119099999999,Woolworth,SHOP_SUPERMARKET,31.496031496047245
52.354523,4.9231145,Nelson Mandelaschool,EDUCATION_SCHOOL,31.51190251317746
51.7616959,14.328633600000002,Obst & Gemüse Lieder,SHOP_GREENGROCER,31.559467676119
51.7616588,14.328627,Floralia Blumenbasar,SHOP_FLORIST,31.559467676119
47.985964,7.8478032,artjamming,FOOD_CAFE,31.59113799786263
51.7617584,14.328977199999999,Sparkasse EC,MONEY_BANK,31.670175244226236
51.1522793,14.988528400000002,KiK,SHOP_CLOTHES,31.68595903550972
50.0449665,19.9541014,Żabka,SHOP_CONVENIENCE,31.70173496829472
50.0646686,14.437080800000002,Divadlo Na Fidlovačce,TRANSPORT_TRAMSTOP,31.73326330524486
51.15343170000001,14.986788899999999,Naturkundemuseum,TOURIST_MUSEUM,31.73326330524486
51.7615725,14.3286207,Edeka,SHOP_SUPERMARKET,31.749015732775092
47.3934106,8.5301545,Schürz Optik,SHOP_DEPARTMENTSTORE,31.764760348537177
51.7611867,14.336697000000001,Oberkirche Sankt Nikolai zu Cottbus,POW_CHRISTIAN,31.764760348537177
51.7616232,14.328626500000002,Efes Kebab,FOOD_FASTFOOD,31.79622619116929
51.7611495,14.330156099999998,Stadthalle,TRANSPORT_TRAMSTOP,31.81194744117373
51.760948299999995,14.334238500000001,Coffeelatte,FOOD_CAFE,31.81194744117373
47.393695,8.5295514,Poststelle 8037 Zürich 37 Wipkingen,AMENITY_POSTOFFICE,31.81194744117373
51.760862100000004,14.3358369,Altmarkt,TRANSPORT_TRAMSTOP,31.827660925679094
52.356148,4.931888,Christel,SHOP_HAIRDRESSER,31.84336665618132
47.393549799999995,8.529625099999999,Hair Corner,SHOP_HAIRDRESSER,31.874754901018452
41.6612275,-0.8827209,La Chimenea,TRANSPORT_TRAMSTOP,31.937438845342626
50.8391445,4.4015792000000005,Annick D,SHOP_HAIRDRESSER,31.953090617340923
51.761109399999995,14.335873800000002,The-Hung Nguyen Asia-Markt,SHOP_SUPERMARKET,31.968734726291558
51.1524802,14.9884891,Blattmaus,SHOP_FLORIST,31.98437118343895
51.15233170000001,14.988702499999999,P+P Schuhe,SHOP_SHOES,31.98437118343895
47.3601998,8.5547041,Bildungszentrum für Erwachsene,EDUCATION_SCHOOL,32.0
51.15113510000001,14.9860184,Emmas Tante,SHOP_CONVENIENCE,32.03123475609393
51.7620225,14.327934099999998,faro-com,SHOP_PHONE,32.04684071792413
51.1524164,14.988903299999999,Expert,SHOP_HIFI,32.062439083762804
51.152575299999995,14.988409699999998,Lederparadies,SHOP_DEPARTMENTSTORE,32.07802986469088
52.355236299999994,4.9334617,Cees de Bouter,SHOP_BUTCHER,32.09361307176243
48.14271970000001,11.536521,Donnersbergerbrücke,TRANSPORT_STATION,32.109188716004645
48.142669399999996,11.5365226,Donnersbergerbrücke,TRANSPORT_STATION,32.12475680841802
51.7609943,14.331928099999999,Back&Zack,SHOP_BAKERY,32.14031735997639
48.1473948,11.540257,Katholische Öffentliche Bibliothek St. Vinzenz,AMENITY_LIBRARY,32.15587038162705
48.1464822,11.5327299,Lola Hängematten und Gartenmöbel,SHOP_DEPARTMENTSTORE,32.171415884290816
48.1966939,16.3127876,Steko Baustoffe,SHOP_DIY,32.171415884290816
52.3696027,9.714227900000001,Schwesterherz,SHOP_CLOTHES,32.218007387174026
51.760834,14.336039499999998,Altmarkt,TRANSPORT_TRAMSTOP,32.2490309931942
51.1526044,14.9888655,Intersport,SHOP_MOTORCYCLE,32.264531609803356
50.064819,14.438955599999998,Praha 416,AMENITY_POSTOFFICE,32.264531609803356
51.1525033,14.988682699999998,Spiele Max,SHOP_TOYS,32.264531609803356
51.1525456,14.988996400000001,City Bowling,SPORT_BOWLING,32.264531609803356
50.0647703,14.438742800000002,Čistírna Vesna,SHOP_LAUNDRETTE,32.280024783137954
47.3935843,8.5296761,The Artisan,FOOD_RESTAURANT,32.280024783137954
48.147099299999994,11.540945800000001,Sankt Vinzenz,POW_CHRISTIAN,32.280024783137954
51.7622503,14.3366251,Rudis,SHOP_CONVENIENCE,32.32645975048923
51.1509877,14.9858637,Zwahr,SHOP_PET,32.34192325759245
51.760948,14.3355261,Suppenbar,FOOD_FASTFOOD,32.4037034920393
48.1426314,11.536524,Donnersbergerbrücke,TRANSPORT_STATION,32.4037034920393
50.064893,14.4391649,Divadlo bez hranic,TOURIST_THEATRE,32.4037034920393
47.3936011,8.5299409,Garte über de Gleis,LANDUSE_GRASS,32.419130154894646
50.839412700000004,4.400941099999999,Stockline,SHOP_CONVENIENCE,32.43454948045371
50.8358133,4.4015762,Père de Deken / Pater de Deken,SHOP_BICYCLE,32.449961479175904
51.7607477,14.336090300000002,Musikladen Bärwinkel,SHOP_DEPARTMENTSTORE,32.48076353782343
51.7614187,14.3243641,Total,TRANSPORT_FUEL,32.48076353782343
50.8394325,4.3997023,Le Rubis,FOOD_RESTAURANT,32.496153618543836
51.152425799999996,14.9916633,Görlitzer Synagoge,POW_JEWISH,32.496153618543836
47.3932614,8.531222900000001,Peter Stark,HEALTH_DOCTORS,32.51153641401772
52.3693603,9.714217199999998,Gunilla,SHOP_CLOTHES,32.51153641401772
51.150712799999994,14.985559699999998,Görlitzer Muskelkater,SHOP_MOTORCYCLE,32.526911934581186
45.785833000000004,3.0813613999999996,Pharmacie Sainte-Claire,HEALTH_PHARMACY,32.54228019054596
51.1506985,14.985955800000001,Augenoptiker Thomas Wünsche,SHOP_DEPARTMENTSTORE,32.54228019054596
51.1519152,14.9895524,Hotel Meridian,ACCOMMO_HOTEL,32.57299494980466
52.3686344,9.712886300000001,weinundlachbar²,FOOD_BAR,32.60368077380221
41.6611969,-0.8827278000000001,La Chimenea,TRANSPORT_TRAMSTOP,32.60368077380221
50.9791612,11.042439300000002,Dr. Jürgen Gerbeth,HEALTH_DENTIST,32.63433774416144
51.760769599999996,14.336438699999999,Honorarkonsul der Republik Belarus,POI_EMBASSY,32.64965543462902
52.3685076,9.711939300000001,eyLinda Outlet,SHOP_CLOTHES,32.72613634390714
50.8807847,12.0837459,Volksbank eG Gera • Jena • Rudolstadt,MONEY_BANK,32.756678708318404
51.7608072,14.3366107,Mythos- Griechisches Restaurant,FOOD_RESTAURANT,32.77193921634788
51.7614345,14.3246077,Landeskirchliche Gemeinschaft,POW_CHRISTIAN,32.787192621509995
52.368587899999994,9.7146239,bioLogisch,SHOP_SUPERMARKET,32.787192621509995
50.827535499999996,4.3589302000000005,Le Pavillon,FOOD_RESTAURANT,32.787192621509995
50.8805411,12.0823716,Paulaner - Wirtshaus Gera,FOOD_RESTAURANT,32.83291031876401
52.3688359,9.713092800000002,Soul kitchen,FOOD_RESTAURANT,32.83291031876401
50.8827312,12.0810377,Fischer Hörakustik,SHOP_HEARINGAIDS,32.863353450309965
50.8826633,12.0811415,Café Medicum,FOOD_CAFE,32.863353450309965
50.838614299999996,4.4002899000000015,Square Princesse Jean de Mérode - Prinses Jean de Mérodeplein,SHOP_FLORIST,32.87856444554719
51.7609172,14.3270386,Stadt- und Regionalbibliothek Volkshochschule,AMENITY_LIBRARY,32.87856444554719
48.2233286,16.3842438,BRG und ORG Wien II Vereinsgasse,EDUCATION_SCHOOL,32.87856444554719
50.064981,14.4393408,Optika Progresiv,SHOP_DEPARTMENTSTORE,32.90896534380867
50.839189399999995,4.3998611,Merode,TRANSPORT_TRAMSTOP,32.92415526630866
52.3682884,9.712255800000001,Freiwillige Feuerwehr Linden,AMENITY_FIRESTATION,32.92415526630866
52.354746999999996,4.9221365,Thull's pickles & stock,SHOP_CONFECTIONERY,32.939338184001215
50.880336299999996,12.0821452,Wunderbar,FOOD_PUB,32.939338184001215
50.9792287,11.042427,Germania-Apotheke,HEALTH_PHARMACY,32.939338184001215
52.371235,9.71292,Waschweiber,SHOP_LAUNDRETTE,32.96968304366907
49.1847643,16.602710300000002,Křídlovická,TRANSPORT_TRAMSTOP,32.984845004941285
50.8827179,12.0811264,St. Johannis-Apotheke,HEALTH_PHARMACY,33.0
41.6614326,-0.8794193000000001,El Lucero,FOOD_BAR,33.0
51.152969,14.99075,Musikschule,EDUCATION_SCHOOL,33.015148038438355
50.878661,12.080341,sparkasse,MONEY_BANK,33.015148038438355
52.35522279999999,4.9257723,Baan Pong,FOOD_RESTAURANT,33.03028912982749
50.8381211,4.4002577,Merode,TRANSPORT_STATION,33.04542328371661
50.8802503,12.084371800000001,METROPOL Kino,TOURIST_CINEMA,33.04542328371661
50.880456,12.081948800000001,cruzado,FOOD_RESTAURANT,33.06055050963308
49.43908070000001,11.0720129,Heynestraße,TRANSPORT_TRAMSTOP,33.06055050963308
47.360170600000004,8.550781,Valentino,FOOD_CAFE,33.09078421554859
50.8805963,12.085500999999999,Prignitzer Leasing AG,MONEY_BANK,33.09078421554859
51.7609526,14.335090300000005,Sparkasse Spree-Neiße,MONEY_BANK,33.1058907144937
52.371635999999995,9.713056,Rewe,SHOP_SUPERMARKET,33.1058907144937
47.38815770000001,8.5390379,Krone Unterstrass,ACCOMMO_HOTEL,33.12099032335839
52.3692388,9.7142006,CUBA's,FOOD_RESTAURANT,33.12099032335839
50.8381164,4.4002024,Merode,TRANSPORT_STATION,33.151168908501546
49.43906610000001,11.0710885,Heynestraße,TRANSPORT_TRAMSTOP,33.151168908501546
52.371547,9.713319,Lindener Apotheke,HEALTH_PHARMACY,33.166247903554
50.87855620000001,12.080537,5meister bäcker,SHOP_BAKERY,33.166247903554
47.98664470000001,7.8544865,Freiburger Kindernest,EDUCATION_NURSERY,33.181320046074106
50.8389021,4.3986503,Carpe Diem,FOOD_RESTAURANT,33.181320046074106
47.2744751,11.397174699999999,Austria Trend Hotel,SHOP_BICYCLE,33.181320046074106
52.3699058,9.714260099999999,Jäger & Sammler,SHOP_CLOTHES,33.19638534539566
51.7612592,14.3250435,Schillerstraße,TRANSPORT_TRAMSTOP,33.211443810831234
50.83838220000001,4.3978474,Exotic Sun,SHOP_HAIRDRESSER,33.211443810831234
50.83855379999999,4.3998604000000014,Square Princesse Jean de Mérode - Prinses Jean de Mérodeplein,SHOP_FLORIST,33.24154027718932
51.76123,14.325030499999999,Schillerstraße,TRANSPORT_TRAMSTOP,33.25657829663178
50.8802598,12.0858239,Physiotherapie Knopf,HEALTH_DOCTORS,33.286633954186485
47.3878401,8.539262400000002,Moudi's lecker Cafe,FOOD_CAFE,33.301651610693426
51.1505321,14.985741899999999,Jakobpassage,TOURIST_ATTRACTION,33.301651610693426
50.83609000000001,4.4012089,ING,MONEY_BANK,33.331666624997915
50.827634100000004,4.3590397,Defacqz,SHOP_BICYCLE,33.36165463522455
47.170928,8.514706,Balmer,SHOP_BOOK,33.36165463522455
52.3553141,4.9277333,Droomfabriek,SHOP_DEPARTMENTSTORE,33.36165463522455
47.3938594,8.531109599999999,Devi's Restaurant,FOOD_RESTAURANT,33.36165463522455
52.3690174,9.7142121,eyLinda,SHOP_CLOTHES,33.391615714128
50.8378541,4.3966788,R-Club,SHOP_HAIRDRESSER,33.40658617698013
52.3705239,9.7133892,11A,FOOD_RESTAURANT,33.42154993413681
50.838838700000004,4.398572,Sel et Sucre,FOOD_FASTFOOD,33.43650699460097
51.1530139,14.9912675,Dietrich-Heiße-Schule,EDUCATION_SCHOOL,33.43650699460097
50.838770000000004,4.3980262,Olivier Dachkin,SHOP_HAIRDRESSER,33.43650699460097
49.4389902,11.072106100000001,Schlosss-Grill,FOOD_PUB,33.45145736735546
50.878494399999994,12.0814127,Justizzentrum,AMENITY_COURT,33.45145736735546
52.3702658,9.7140912,TAK — Theater am Küchengarten,TOURIST_THEATRE,33.481338085566414
50.8387925,4.3989285,Fabienne Verstraeten,HEALTH_DENTIST,33.49626844888845
51.7606694,14.3353994,Brau&Bistro,FOOD_RESTAURANT,33.52610922848042
50.8798064,12.081905599999999,Deutsche Kreditbank AG,MONEY_BANK,33.541019662496836
50.8826849,12.081083,Medicum Gera,HEALTH_DOCTORS,33.541019662496836
50.879638899999996,12.0828401,Manufaktur,FOOD_RESTAURANT,33.541019662496836
47.4130847,8.553338400000001,Parkhaus Grill,FOOD_FASTFOOD,33.541019662496836
48.1469664,11.538864,Backshop Erva,SHOP_BAKERY,33.555923471125034
52.3546847,4.9293375,Linnaeus,SHOP_BOOK,33.555923471125034
50.880205,12.0812767,Kriminalpolizeiinspektion Gera,AMENITY_POLICE,33.555923471125034
51.15124210000001,14.984450500000001,Tom Tailor,SHOP_CLOTHES,33.555923471125034
50.8827706,12.0809675,AID - Gemeinschaftspraxis,HEALTH_DOCTORS,33.57082066318904
48.145446899999996,11.5364787,AMG-Zentrum München,SHOP_CAR,33.57082066318904
47.568014399999996,7.5979940999999975,Musical Theater,TOURIST_THEATRE,33.57082066318904
52.3549625,4.9219343,Olives and more,SHOP_CONFECTIONERY,33.58571124749333
50.8796313,12.0810125,Justizzentrum,AMENITY_COURT,33.58571124749333
47.3682114,8.5588043,Hort Hillside,EDUCATION_NURSERY,33.58571124749333
49.4388915,11.0720399,Elegance Salon,SHOP_HAIRDRESSER,33.58571124749333
47.2551232,11.3962599,Fahrradladen Innsbruck,SHOP_BICYCLE,33.60059523282288
50.8788694,12.0806929,Justizzentrum,AMENITY_COURT,33.60059523282288
50.878941299999994,12.083037699999998,Jugelt,SHOP_BAKERY,33.60059523282288
52.371441299999994,9.7132174,Am Küchengarten,TRANSPORT_TRAMSTOP,33.61547262794322
47.2555648,11.398064199999999,eni,TRANSPORT_FUEL,33.61547262794322
50.8387971,4.3985142999999995,Hanoi Station,FOOD_FASTFOOD,33.61547262794322
48.166579999999996,11.567689999999999,Basketball,SPORT_BASKETBALL,33.63034344160047
50.8388223,4.398103099999998,Photo Gallerie,SHOP_DEPARTMENTSTORE,33.645207682521445
48.1398852,11.5329125,Gazzola,SHOP_DEPARTMENTSTORE,33.645207682521445
51.7608183,14.3269948,Volkshochschule Cottbus,EDUCATION_SCHOOL,33.645207682521445
52.3698528,9.713519999999999,sebs bikeshop,SHOP_BICYCLE,33.66006535941367
50.8796385,12.0829081,Tattoo Studio - Manufaktur,SHOP_DEPARTMENTSTORE,33.66006535941367
50.8385603,4.3982434999999995,Jean-François Van Assche,SHOP_DEPARTMENTSTORE,33.674916480965464
52.3716217,9.7129306,Am Küchengarten,TRANSPORT_TRAMSTOP,33.674916480965464
50.8388973,4.398105200000002,Veline Moda Da Italia,SHOP_CLOTHES,33.689761055846034
50.045131299999994,19.9548544,Limanowskiego,TRANSPORT_TRAMSTOP,33.689761055846034
50.8799778,12.085614199999998,Ferber-Apotheke,HEALTH_PHARMACY,33.70459909270544
50.838546,4.3984887000000015,Bike Zone,SHOP_MOTORCYCLE,33.70459909270544
47.3839096,8.5468111,Kirche Oberstrass,POW_CHRISTIAN,33.71943060017473
52.370233899999995,9.7140706,TAK Theater am Küchengarten,TOURIST_THEATRE,33.734255586866
52.3549734,4.9220307,Kapsalon Jimmy,SHOP_HAIRDRESSER,33.734255586866
50.0654648,14.4394324,Hospoda Pohoda,FOOD_PUB,33.74907406137241
50.8786185,12.081897,Gedenk- und Begegnungsstätte im Torhaus der politischen Haftanstalt,TOURIST_MUSEUM,33.763886032268275
50.8810273,12.0824224,Zabel-Gymnasium Gera,EDUCATION_SCHOOL,33.77869150810907
52.35445,4.9292107000000005,Kick,SHOP_CLOTHES,33.793490497431605
50.8387659,4.3978877,Au Soleil du Midi,FOOD_FASTFOOD,33.80828300875393
50.8799867,12.082933500000001,Deutsche Bank,MONEY_BANK,33.80828300875393
50.837779499999996,4.396570400000001,en Bois et Moi,SHOP_TOYS,33.80828300875393
50.8801266,12.084444699999999,Küchenstudio Martin,SHOP_LAUNDRETTE,33.88214869219483
51.1510956,14.9842549,dm,SHOP_CONVENIENCE,33.88214869219483
47.2552714,11.396234300000001,Rainerwein,SHOP_ALCOHOL,33.88214869219483
47.387946,8.539352599999999,Kronenstrasse,TRANSPORT_TRAMSTOP,33.896902513356586
51.779331,19.443389899999996,Intersport,SHOP_MOTORCYCLE,33.91164991562634
50.8788099,12.0825493,Kaiserwerke,TOURIST_NIGHTCLUB,33.91164991562634
50.8825761,12.0811954,Augenarztpraxis und Ambulantes OP-Zentrum Dr. Heike Schroth,HEALTH_DOCTORS,33.91164991562634
50.8826143,12.0810851,HNO Praxis Dietel,HEALTH_DOCTORS,33.91164991562634
50.8384964,4.398016,Simply Helping,SHOP_DEPARTMENTSTORE,33.91164991562634
48.1467146,11.5400104,Khan Art Ambient,SHOP_DEPARTMENTSTORE,33.926390907374746
50.8386871,4.3984279000000015,Canto,SHOP_HAIRDRESSER,33.94112549695428
50.8387574,4.3984566,Pizzeria Tutti,FOOD_FASTFOOD,33.94112549695428
51.15020300000001,14.9854141,Zeeman,SHOP_CLOTHES,33.955853692699286
48.1967326,16.3122325,Tele 58,SHOP_PHONE,33.98529093593286
51.7795045,19.4436878,Eurobank,MONEY_BANK,33.98529093593286
47.36034520000001,8.5542949,Kantonale Maturitätsschule für Erwachsene,EDUCATION_SCHOOL,34.0
51.15119710000001,14.983990599999998,Pluspunkt Apotheke,HEALTH_PHARMACY,34.0
48.1462693,11.5358954,Donnersbergerstraße,TRANSPORT_TRAMSTOP,34.0147027033899
50.0655234,14.4393796,Špeluňka,FOOD_PUB,34.02939905434711
50.8799544,12.0862569,Top Hair,SHOP_HAIRDRESSER,34.02939905434711
47.985918700000006,7.8472395000000015,Der Kaiser,FOOD_RESTAURANT,34.058772731852805
50.878206299999995,12.081840300000001,Müller,SHOP_CONVENIENCE,34.058772731852805
52.354495899999996,4.9291088,Het Huis,SHOP_DEPARTMENTSTORE,34.058772731852805
50.8800344,12.0843728,Leipziger Straße,TRANSPORT_TRAMSTOP,34.058772731852805
50.8386689,4.3977445999999984,Bike Zone,SHOP_MOTORCYCLE,34.07345007480164
50.827926500000004,4.3717525,Flagey,SHOP_BICYCLE,34.07345007480164
50.8365797,4.399450700000001,L'Alliance,FOOD_BAR,34.08812109811862
51.150843200000004,14.9838995,Apollo Optik,SHOP_DEPARTMENTSTORE,34.08812109811862
50.837682,4.3964298,Mini Express,SHOP_PHONE,34.08812109811862
50.879506299999996,12.083782300000001,Graf Zeppelin,FOOD_CAFE,34.10278580995987
50.8792553,12.0800789,Justizzentrum,AMENITY_COURT,34.10278580995987
50.8795126,12.0818743,Kleines Theater im Zentrum,TOURIST_THEATRE,34.10278580995987
51.7794554,19.443705800000004,Organique,SHOP_CONVENIENCE,34.11744421846396
50.8373954,4.3963897,Mniam Mniam,FOOD_RESTAURANT,34.11744421846396
50.8800058,12.086421699999999,BP Berufsbekleidung,SHOP_CLOTHES,34.161381705077446
50.8797467,12.0845107,Leipziger Straße,TRANSPORT_TRAMSTOP,34.17601498127012
50.878202,12.080884800000002,McDonald's,FOOD_FASTFOOD,34.205262752974136
52.354958,4.9228245,Karaman Kasabi,SHOP_CONVENIENCE,34.219877264537345
50.8377936,4.3964499,VMC,SHOP_DEPARTMENTSTORE,34.219877264537345
50.838519500000004,4.3976572,Smak,SHOP_CONVENIENCE,34.219877264537345
50.8800801,12.0867819,Yakuza Store,SHOP_CLOTHES,34.26368339802363
48.1463839,11.5333261,Big Sleep Wasserbetten,SHOP_DEPARTMENTSTORE,34.27827300200522
50.8386698,4.3978785,Snack Merode,FOOD_FASTFOOD,34.27827300200522
48.147299200000006,11.5391166,Blue Hair,SHOP_HAIRDRESSER,34.322004603461025
50.8387406,4.3978504,Snack Libanais,FOOD_FASTFOOD,34.322004603461025
50.8384615,4.397964599999999,Mam'zelle Violette,SHOP_CLOTHES,34.322004603461025
51.75937490000001,14.3229343,Getränke- Hoffmann,SHOP_ALCOHOL,34.3365694267788
51.7796818,19.444026899999997,Stacja ładowania pojazdów elektrycznych,SHOP_DEPARTMENTSTORE,34.3365694267788
51.7793936,19.443724600000003,Samsonite,SHOP_DEPARTMENTSTORE,34.3365694267788
47.255472999999995,11.396712599999999,Hotel Zillertal,ACCOMMO_HOTEL,34.3365694267788
49.43886320000001,11.071376800000001,Deutscher Michel,FOOD_RESTAURANT,34.3365694267788
50.879185299999996,12.079458599999999,Arbeitskleidung,SHOP_CLOTHES,34.35112807463533
48.145838299999994,11.5362756,Mercedes-Benz,SHOP_CAR,34.36568055487916
50.8377369,4.3968985,Belga Voyage,SHOP_DEPARTMENTSTORE,34.36568055487916
47.567096899999996,7.5973643,Evangelisch-methodistische Kirche Kleinbasel,POW_CHRISTIAN,34.36568055487916
50.881028,12.081321699999998,St. Johanniskirche Gera,POW_CHRISTIAN,34.39476704383968
50.83758570000001,4.3962885,Design,SHOP_HAIRDRESSER,34.39476704383968
50.0655622,14.4393476,Antikvariat-knihy.cz,SHOP_BOOK,34.39476704383968
52.355392200000004,4.9279002,D-reizen,SHOP_DEPARTMENTSTORE,34.42382895611701
51.1503006,14.985101,NKD,SHOP_CLOTHES,34.42382895611701
50.8375355,4.3961919,Ladbrokes,SHOP_DEPARTMENTSTORE,34.438350715445125
50.8787594,12.0831734,Sparda-Bank,MONEY_BANK,34.452866353904426
47.17080900000001,8.515122199999999,Manor,SHOP_SUPERMARKET,34.452866353904426
50.8278734,4.3699838,Vote for Pedro,SHOP_HAIRDRESSER,34.452866353904426
50.8278438,4.3693623,Ptyx,SHOP_BOOK,34.46737587922817
50.8380011,4.397334099999999,The Shaker,FOOD_PUB,34.46737587922817
50.8278371,4.3694517,Lina,SHOP_HAIRDRESSER,34.46737587922817
50.879298299999995,12.079598599999999,Für Toleranz,TOURIST_MEMORIAL,34.49637662132068
50.879710700000004,12.079361800000001,Medizinisches Versorgungszentrum Poliklinik Gera IV,HEALTH_DOCTORS,34.510867853474785
51.778671,19.4432988,Tchibo,FOOD_CAFE,34.510867853474785
50.8788422,12.0853489,Adler Apotheke,HEALTH_PHARMACY,34.510867853474785
50.8278774,4.3700795999999995,Cave Coop,SHOP_ALCOHOL,34.525353003264144
47.3834499,8.54795,Linde Oberstrass,FOOD_RESTAURANT,34.525353003264144
50.879638799999995,12.0794734,art club,FOOD_CAFE,34.539832078341085
50.8802674,12.0793739,Jugendclub C-One,TOURIST_THEATRE,34.539832078341085
50.837228499999995,4.3964388,Vélophil,SHOP_BICYCLE,34.554305086341984
47.3599934,8.553330599999999,Fussbalplatz FGZ,SPORT_SOCCER,34.56877203488721
50.837429799999995,4.396667,Mevan Snack,FOOD_FASTFOOD,34.583232931581165
48.1465573,11.5344821,VollCorner Bio,SHOP_SUPERMARKET,34.583232931581165
50.879679100000004,12.0793934,Zentral-Apotheke,HEALTH_PHARMACY,34.583232931581165
47.5674806,7.598852799999999,Buchstabenshop Autosign,SHOP_DEPARTMENTSTORE,34.597687784012386
50.8778896,12.0799759,Solarium,SHOP_DEPARTMENTSTORE,34.597687784012386
50.878405900000004,12.0791763,Stadt- und Regionalbibliothek Gera,AMENITY_LIBRARY,34.597687784012386
50.8797031,12.084714199999999,Santander Consumer Bank,MONEY_BANK,34.597687784012386
50.8376349,4.396840900000001,Stop & Save,SHOP_CONVENIENCE,34.612136599753555
50.065646,14.439675,Jiu Zhou,FOOD_RESTAURANT,34.62657938636157
47.254814700000004,11.3967658,Riese Haymon,AMENITY_PLAYGROUND,34.62657938636157
51.1509448,14.9836259,Thalia,SHOP_BOOK,34.62657938636157
50.8819682,12.0798811,"Stadtverwaltung Gera, Dezernat 4000 Bau und Umwelt",AMENITY_TOWNHALL,34.62657938636157
51.7607214,14.3226848,Videoworld,SHOP_VIDEORENTAL,34.64101615137755
51.150722200000004,14.984316399999999,André Georgi,SHOP_CLOTHES,34.64101615137755
50.878654499999996,12.083179699999999,Domino's Pizza,FOOD_FASTFOOD,34.64101615137755
47.17149600000001,8.514577699999998,Coop,SHOP_SUPERMARKET,34.64101615137755
52.4121369,16.9069734,Jeżyk,SHOP_SUPERMARKET,34.64101615137755
50.8779437,12.0816168,Köstritzer Bierhaus,FOOD_RESTAURANT,34.66987164671943
51.7605451,14.324813399999998,LWG Lausitzer Wasser GmbH & Co KG,POI_CRANE,34.66987164671943
50.8794444,12.0798488,Postamt,AMENITY_COURT,34.66987164671943
50.879397,12.0798379,Postbank,MONEY_BANK,34.66987164671943
48.146173299999994,11.536712699999999,Donnersbergerstraße,TRANSPORT_TRAMSTOP,34.68429039204925
50.8253786,4.3541018,Janson,TRANSPORT_TRAMSTOP,34.713109915419565
50.879628499999995,12.0802563,Justizzentrum,AMENITY_COURT,34.713109915419565
50.8798619,12.079332899999999,Facharztzentrum Puschkinplatz,HEALTH_DOCTORS,34.713109915419565
51.1508876,14.984277300000002,H&M,SHOP_CLOTHES,34.72751070837067
52.4106342,16.9061012,Plac Adama Asnyka,LANDUSE_GRASS,34.72751070837067
50.8375837,4.3954943,The Barn Bio Market,SHOP_SUPERMARKET,34.74190553208041
50.8789113,12.0800665,apollo optik,SHOP_DEPARTMENTSTORE,34.75629439396553
50.87888529999999,12.079991,Apotheke am Puschkinplatz,HEALTH_PHARMACY,34.75629439396553
47.3598029,8.5525464,bfine,FOOD_RESTAURANT,34.75629439396553
50.8781578,12.0825772,Amthorpassage,SHOP_SUPERMARKET,34.77067730142742
51.15054600000001,14.984529,Studio G,FOOD_FASTFOOD,34.77067730142742
51.15051,14.984601000000001,La Galleria Italiana,FOOD_RESTAURANT,34.77067730142742
51.1504247,14.984713000000001,Rieger Betten und Naturwaren,SHOP_DEPARTMENTSTORE,34.77067730142742
49.4379745,11.0734949,Odeum,FOOD_CAFE,34.77067730142742
50.8780644,12.0826698,Kik,SHOP_CLOTHES,34.77067730142742
51.1503881,14.9847951,Foto Lorenz,SHOP_DEPARTMENTSTORE,34.77067730142742
50.8376526,4.3963858,Ring-Ring,SHOP_DEPARTMENTSTORE,34.77067730142742
48.19675520000001,16.311757399999998,Mon Ami,FOOD_RESTAURANT,34.785054261852174
50.8779756,12.082602099999999,Intersport Giessübel,SHOP_MOTORCYCLE,34.785054261852174
52.4118381,16.9071323,Piekarnia Hildebrand,SHOP_BAKERY,34.785054261852174
52.355681,4.925317400000001,De Glutenvrije Winkel,SHOP_SUPERMARKET,34.785054261852174
48.1667768,11.572281599999998,Postwiese,LANDUSE_GRASS,34.785054261852174
47.1699861,8.5156335,Bonita,SHOP_CLOTHES,34.79942528261063
51.15105560000001,14.983783800000001,O2,SHOP_PHONE,34.79942528261063
47.1721533,8.5146718,Kiosk,SHOP_KIOSK,34.813790371058424
47.255465799999996,11.397540199999998,Riese Haymon,FOOD_RESTAURANT,34.813790371058424
50.8778453,12.0812709,Podium,FOOD_RESTAURANT,34.813790371058424
50.8814097,12.0810218,Park der Demokratie,LANDUSE_GRASS,34.828149534536
50.8372262,4.3958680999999995,Place Saint-Pierre - St-Pietersplein,TRANSPORT_TRAMSTOP,34.85685011586675
52.3552313,4.9290666,Mr. & Mrs. Watson,FOOD_RESTAURANT,34.85685011586675
50.8375191,4.3954205,Pharmacie St-Pierre,HEALTH_PHARMACY,34.85685011586675
47.357878,8.530513599999999,Rieterpark,LANDUSE_GRASS,34.87119154832539
52.412183399999996,16.906815899999998,"Bar Mleczny ""Jeżycki""",FOOD_FASTFOOD,34.87119154832539
50.8792979,12.0785814,Restaurant KALINKA,FOOD_RESTAURANT,34.87119154832539
51.75993370000001,14.324356400000001,Butcher and Friends,FOOD_RESTAURANT,34.87119154832539
49.4387734,11.0726047,Die Zweirad Garage,SHOP_MOTORCYCLE,34.88552708502482
51.7793875,19.4439827,New Look,SHOP_CLOTHES,34.88552708502482
50.879306400000004,12.079074,Puschkinplatz,TOURIST_FOUNTAIN,34.89985673323029
50.8235069,4.3523732000000015,Lukoil,TRANSPORT_FUEL,34.91418050019218
50.065622999999995,14.4393,MozzarellArt,SHOP_DEPARTMENTSTORE,34.91418050019218
50.8278667,4.3697922,Europa clean,SHOP_LAUNDRETTE,34.928498393145965
50.8382347,4.3976298,Capoue Celtes,FOOD_ICECREAM,34.94281041931229
47.5668254,7.5974073,Mövenpick Weinkeller Basel,SHOP_ALCOHOL,34.94281041931229
48.1934995,16.310626,Bipa,SHOP_CONVENIENCE,34.94281041931229
50.882508200000004,12.0780482,AVIS,TRANSPORT_RENTALCAR,34.94281041931229
50.8783205,12.0826601,Woolworth,SHOP_CONVENIENCE,34.94281041931229
51.1505825,14.984429500000001,Tanzschule Matzke,EDUCATION_SCHOOL,34.95711658589707
48.1477891,11.5420299,Frisureneckerl,SHOP_HAIRDRESSER,34.97141690009143
50.838096500000006,4.3969123,Ellinikon,FOOD_RESTAURANT,34.9857113690718
50.83799060000001,4.3968774,Sole,SHOP_DEPARTMENTSTORE,34.9857113690718
47.357565799999996,8.530663,Jüngling mit Habicht,TOURIST_ART,34.9857113690718
50.8276799,4.3702424,Les super filles du tram,FOOD_FASTFOOD,34.9857113690718
51.7786722,19.4427516,Duka,SHOP_DEPARTMENTSTORE,35.0
50.8279375,4.371136099999998,Carrefour express,SHOP_SUPERMARKET,35.0
50.8278721,4.3702615,Institut Ruby,SHOP_HAIRDRESSER,35.0
50.8280891,4.3714413,Ellis Burger,FOOD_RESTAURANT,35.0
51.1506792,14.984183699999999,Goeldner,SHOP_DEPARTMENTSTORE,35.0
50.87907360000001,12.0788404,Puschkinplatz,TRANSPORT_TRAMSTOP,35.02855977627399
48.1967277,16.3069494,Anker,SHOP_BAKERY,35.04283093587046
48.16694620000001,11.573205300000001,Pearl Garden,FOOD_RESTAURANT,35.07135583350036
52.4120872,16.9072505,neoBank,MONEY_BANK,35.08560958569767
47.1716263,8.5150231,Bundesplatz,TOURIST_FOUNTAIN,35.09985754956848
52.3556555,4.9251579,Kissami,SHOP_HAIRDRESSER,35.09985754956848
51.151141700000004,14.983908499999998,Mobilcom Debitel,SHOP_PHONE,35.09985754956848
50.828408,4.3470339000000005,Consultation prénatale ONE,HEALTH_HOSPITAL,35.11409973215888
47.1706576,8.5156703,The blue dog,SHOP_DEPARTMENTSTORE,35.11409973215888
50.8278725,4.3704426,AMI,FOOD_RESTAURANT,35.128336140500586
47.1714464,8.514679,Coop City,SHOP_SUPERMARKET,35.128336140500586
47.2745176,11.397473,Hotel Congress Innsbruck,ACCOMMO_HOTEL,35.128336140500586
48.1467436,11.533207699999998,Yak & Yeti,FOOD_RESTAURANT,35.14256678161116
50.923344799999995,11.5782797,Wiener Feinbäckerei Heberer GmbH,SHOP_BAKERY,35.156791662493895
50.879150700000004,12.086394300000002,Änderungsschneiderei u. Modeshop Karin,SHOP_DEPARTMENTSTORE,35.156791662493895
47.35768270000001,8.530982400000001,Park-Villa Rieter,TOURIST_MUSEUM,35.18522417151837
49.4393242,11.0728637,M&M AutoService,SHOP_CARREPAIR,35.18522417151837
51.1493601,14.987852499999999,Salon Happy Hair,SHOP_HAIRDRESSER,35.199431813596085
51.14996710000001,14.9866731,Joliot-Curie-Gymnasium,EDUCATION_SCHOOL,35.22782990761707
48.1924401,16.300493200000002,Pfarrzentrum Penzing,TOURIST_THEATRE,35.24202037341219
50.879576899999996,12.0848293,HypoVereinsbank,MONEY_BANK,35.24202037341219
50.827900299999996,4.3708702000000015,Amon-Re,FOOD_FASTFOOD,35.25620512760839
47.568225899999995,7.597338400000001,Elsa-Market,SHOP_CONVENIENCE,35.270384177096794
51.7791186,19.4438406,Militaria.pl,SHOP_DEPARTMENTSTORE,35.270384177096794
47.35821370000001,8.529559800000001,Sitzende Figur,TOURIST_ART,35.298725189445584
50.827718299999994,4.3711867,Wok Indonesia,FOOD_FASTFOOD,35.298725189445584
52.4118019,16.9072802,"Salon Fryzjerski ""Beaute""",SHOP_HAIRDRESSER,35.298725189445584
47.1712183,8.5153338,Neustadt,POI_SUBURB,35.32704346531139
47.4147581,8.553327000000001,Isebähnli,FOOD_RESTAURANT,35.32704346531139
50.8371164,4.3958928,Place Saint-Pierre - St-Pietersplein,TRANSPORT_TRAMSTOP,35.32704346531139
52.3554744,4.9279197,Tip Top,SHOP_LAUNDRETTE,35.341194094144576
51.7784084,19.443046600000002,RTV Euro AGD,SHOP_HIFI,35.341194094144576
48.22351610000001,16.385675199999998,Schwan-Apotheke,HEALTH_PHARMACY,35.355339059327385
53.127502799999995,17.9938815,Budynek C,EDUCATION_SCHOOL,35.36947836765478
51.1505001,14.984452800000001,Straßburg-Passage,SHOP_SUPERMARKET,35.383612025908256
52.353764899999994,4.9204599,Nicole,SHOP_LAUNDRETTE,35.383612025908256
53.127526399999994,17.994383399999997,Budynek B,EDUCATION_SCHOOL,35.383612025908256
50.8287215,4.3705504,Dolma,FOOD_RESTAURANT,35.397740040855716
51.150680799999996,14.984009200000001,Parfümerie Thiemann,SHOP_DEPARTMENTSTORE,35.397740040855716
47.2562389,11.3885489,OMV,TRANSPORT_FUEL,35.41186241925155
51.7791054,19.443709100000003,Bytom,SHOP_CLOTHES,35.41186241925155
53.1271164,17.993223699999994,Konsulat Honorowy Ukrainy w Bydgoszczy,POI_EMBASSY,35.4259791678367
50.8785641,12.085723199999999,Netgames,SHOP_HIFI,35.4259791678367
51.779414,19.4444655,Change Lingerie,SHOP_CLOTHES,35.4259791678367
51.7784914,19.4427945,Sony,SHOP_HIFI,35.4259791678367
47.255679,11.397736,Neuwirt,FOOD_RESTAURANT,35.440090293338706
47.171769899999994,8.515250300000002,Oswald,SHOP_CONVENIENCE,35.440090293338706
52.4122108,16.906535100000006,Bagietka,SHOP_BAKERY,35.4682957019364
52.35556879999999,4.9278037,Grape District Oost,SHOP_DEPARTMENTSTORE,35.4682957019364
52.41047800000001,16.9041526,Uno Espresso,FOOD_CAFE,35.496478698597706
50.8778674,12.081713699999998,Ernstings Family,SHOP_CLOTHES,35.496478698597706
51.77873029999999,19.4437869,Benetton,SHOP_CLOTHES,35.496478698597706
47.270306899999994,11.383135300000001,Hötting,POI_SUBURB,35.496478698597706
50.878679999999996,12.0861056,Optik Fiedler Grit Heidenteich,SHOP_DEPARTMENTSTORE,35.496478698597706
50.881864,12.077577,Reiseagentur REISE-KARHU,SHOP_DEPARTMENTSTORE,35.496478698597706
50.82812979999999,4.3709453,Le Pantin,FOOD_PUB,35.510561809129406
51.150312400000004,14.9846719,Mode Express,SHOP_CLOTHES,35.510561809129406
51.1503638,14.984561800000002,Delphin-Apotheke,HEALTH_PHARMACY,35.510561809129406
50.87820470000001,12.084259300000001,Viba Sweets,SHOP_CONFECTIONERY,35.510561809129406
50.8275693,4.3714151,Le Pitch-Pin,FOOD_PUB,35.52463933666322
50.8776919,12.0814994,Ambiente,FOOD_RESTAURANT,35.52463933666322
51.3077944,9.486554199999999,Friedrich-Wöhler-Schule,EDUCATION_SCHOOL,35.52463933666322
50.828063799999995,4.3721547,Plantes et fleurs,SHOP_MARKETPLACE,35.52463933666322
52.3553649,4.9293238,Run-Inn,SHOP_SHOES,35.52463933666322
47.3608086,8.532645500000001,Schule Lavater,EDUCATION_SCHOOL,35.52463933666322
47.1721253,8.515016099999999,Gotthardhof,FOOD_RESTAURANT,35.52463933666322
47.3588908,8.5297317,Smaragd,TOURIST_MUSEUM,35.53871128783372
50.8791205,12.079333199999999,Barclays Sport & Event Bar,FOOD_BAR,35.53871128783372
47.1707743,8.5155201,Treichler,FOOD_CAFE,35.53871128783372
50.8781307,12.083627499999999,O2,SHOP_PHONE,35.552777669262355
50.8272241,4.348339900000001,Place Louis Morichar - Louis Moricharplein,LANDUSE_GRASS,35.566838487557476
51.7788946,19.443929100000002,Gino Rossi,SHOP_SHOES,35.58089374931439
47.1711431,8.5152154,Victoria,FOOD_FASTFOOD,35.59494346111536
50.8782567,12.0840105,Spezialitätenrestaurant Royal,FOOD_RESTAURANT,35.60898762952972
52.3560005,4.931378400000002,William Hart,SHOP_HAIRDRESSER,35.60898762952972
47.362503000000004,8.5330275,Breitinger,ACCOMMO_HOTEL,35.60898762952972
50.8781976,12.0838381,Fielmann,SHOP_DEPARTMENTSTORE,35.60898762952972
50.878685299999994,12.0852508,Milchbar,SHOP_DEPARTMENTSTORE,35.60898762952972
50.8779459,12.083048,Gerry Weber,SHOP_CLOTHES,35.62302626111375
50.878132,12.084050099999999,Sonnenklar,SHOP_DEPARTMENTSTORE,35.62302626111375
50.878162700000004,12.0833863,Kühn's Vitaminquell,SHOP_GREENGROCER,35.62302626111375
51.779131899999996,19.4439854,Kazar,SHOP_SHOES,35.63705936241092
52.355482200000004,4.924693799999999,Rodayna,SHOP_LAUNDRETTE,35.651086939951774
51.7790309,19.4439158,Centrum Handlowo-Rozrywkowe Manufaktura,SHOP_SUPERMARKET,35.651086939951774
47.3588664,8.5300519,Café Museum Rietberg,FOOD_CAFE,35.651086939951774
50.8776086,12.0820399,Umberto De Bernado,FOOD_CAFE,35.651086939951774
50.878152,12.0857162,Totoś Treff,FOOD_PUB,35.651086939951774
50.8777156,12.0819148,Volksbank eG Gera • Jena • Rudolstadt,MONEY_BANK,35.665109000254006
47.3589183,8.5297352,Museum Rietberg,TOURIST_MUSEUM,35.665109000254006
42.6997102,2.8869485,Speedy,SHOP_CARREPAIR,35.679125549822544
52.3543755,4.929838,Bakkerij Balvert,SHOP_BAKERY,35.6931365951495
52.35556629999999,4.9249982,Joe's Garage,TOURIST_THEATRE,35.6931365951495
50.8282798,4.3717287,Delhaize City,SHOP_SUPERMARKET,35.6931365951495
50.827816399999996,4.3723141,Flagey,SHOP_MARKETPLACE,35.70714214271425
50.836923299999995,4.3963302,Folklor,FOOD_RESTAURANT,35.70714214271425
50.9232623,11.578187,k Presse und Buch,SHOP_KIOSK,35.70714214271425
50.837551899999994,4.3959695,Theo Food,SHOP_CONVENIENCE,35.749125863438955
51.779402399999995,19.444194600000003,Deichmann,SHOP_SHOES,35.749125863438955
50.922321999999994,11.5817521,Alexander-Puschkin Denkmal,TOURIST_MEMORIAL,35.76310948449533
50.8774451,12.0814367,ADAC-Filiale,SHOP_DEPARTMENTSTORE,35.76310948449533
47.16968120000001,8.515942599999999,Gabor,SHOP_SHOES,35.76310948449533
50.8281112,4.371583900000001,Au Cafe du Sud,FOOD_CAFE,35.77708763999664
48.1919537,16.3022047,Pfarrkirche Penzing St. Jakob,POW_CHRISTIAN,35.79106033634656
50.877401,12.081337,Miro-Club,TOURIST_NIGHTCLUB,35.805027579936315
47.1716292,8.5153338,Amavita,HEALTH_PHARMACY,35.805027579936315
50.8278521,4.3725172,Place Eugène Flagey - Eugène Flageyplein,TOURIST_FOUNTAIN,35.81898937714463
52.3546225,4.9289886,Hans Anders,SHOP_DEPARTMENTSTORE,35.81898937714463
52.3551277,4.9225142,Birlik Market,SHOP_CONVENIENCE,35.832945734337834
47.3832946,8.5481986,Winkelriedstrasse,TRANSPORT_TRAMSTOP,35.832945734337834
50.83666270000001,4.3968124,Proxy Delhaize,SHOP_CONVENIENCE,35.84689665786984
50.8779172,12.082858900000002,Vodafone,SHOP_PHONE,35.86084215408221
50.8278414,4.346890900000001,Athénée Royal Victor Horta,EDUCATION_SCHOOL,35.86084215408221
52.412026000000004,16.9073853,Arc Tours,SHOP_DEPARTMENTSTORE,35.86084215408221
47.6348424,6.8574031,La Table du Lion,FOOD_RESTAURANT,35.874782229304195
51.7802656,19.4452397,Kakadu,SHOP_PET,35.88871688985273
51.1507592,14.9833546,Florizz,SHOP_FLORIST,35.88871688985273
47.358589200000004,8.530412,Marmorbüste,TOURIST_ART,35.902646142032474
50.838282299999996,4.3973078,My Beautiful Laundrette,SHOP_LAUNDRETTE,35.91656999213594
48.19369879999999,16.310582699999998,Kalman KFZ,SHOP_CARREPAIR,35.930488446443356
50.8787869,12.086442,Asia,FOOD_RESTAURANT,35.930488446443356
50.826552899999996,4.370188099999999,Crèche Sainte-Croix,EDUCATION_NURSERY,35.930488446443356
51.1504148,14.9844261,Schuh Lounge,SHOP_SHOES,35.930488446443356
50.8384143,4.3973681,Place Aux Arts,SHOP_DEPARTMENTSTORE,35.930488446443356
52.3668952,4.9300104000000005,Zeeburg Autoverhuur,TRANSPORT_RENTALCAR,35.94440151122286
47.1705847,8.516013599999999,Fresh Homemade Cosmetics,SHOP_HAIRDRESSER,35.95830919273041
48.1463471,11.535036,Donnersbergerstraße,TRANSPORT_TRAMSTOP,35.95830919273041
50.8788852,12.0785234,Puschkinplatz,TRANSPORT_TRAMSTOP,35.95830919273041
51.7576945,14.335951099999999,Skyfit Cottbus,SPORT_LEISURECENTER,35.95830919273041
47.1704971,8.5159922,City Reisen,SHOP_DEPARTMENTSTORE,35.95830919273041
47.3586468,8.530294900000001,Ganswürger,TOURIST_ART,35.95830919273041
47.1704096,8.5157347,Tchibo,SHOP_SUPERMARKET,35.95830919273041
50.8241316,4.3501829,Moris,TRANSPORT_TRAMSTOP,35.9722114972099
52.3555711,4.9274740999999995,Natraj,FOOD_RESTAURANT,35.986108430893154
47.35846420000001,8.531286999999999,Der Kalbträger,TOURIST_ART,35.986108430893154
47.6347561,6.8573735000000005,La Nonna,FOOD_RESTAURANT,35.986108430893154
47.35848220000001,8.532397,Rietberg Montessori School,EDUCATION_SCHOOL,36.0
42.7001744,2.8871936000000002,Le comptoir des sens,SHOP_DEPARTMENTSTORE,36.013886210738214
47.1710432,8.5157039,Grau,SHOP_DEPARTMENTSTORE,36.013886210738214
52.36595620000001,4.936439900000001,Gerardus Majellakerk,POW_CHRISTIAN,36.013886210738214
52.3556581,4.9277597,Pearle,SHOP_DEPARTMENTSTORE,36.02776706930364
51.149220299999996,14.987033100000001,Mahnmal für die Opfer des Faschismus,TOURIST_MEMORIAL,36.041642581880204
50.828026200000004,4.347599400000001,Place Morichar / Moricharplein,SHOP_BICYCLE,36.041642581880204
48.2239235,16.3889557,Dolce Vita,FOOD_RESTAURANT,36.041642581880204
51.1506271,14.983538000000001,Colloseum,SHOP_CLOTHES,36.05551275463989
47.1700441,8.5161521,Dentist Abbas Hussain,HEALTH_HOSPITAL,36.05551275463989
50.8824213,12.076713999999999,Hauptbahnhof/Theater,TRANSPORT_TRAMSTOP,36.05551275463989
47.6358861,6.858461900000001,Jardin médiéval,LANDUSE_GRASS,36.05551275463989
50.8826974,12.0775818,Viettel,FOOD_FASTFOOD,36.05551275463989
50.8375704,4.3957904,Carrefour Express,SHOP_SUPERMARKET,36.069377593742864
50.88035,12.079189999999999,TheaterFABRIK von Theater&Philharmonie Thüringen,TOURIST_THEATRE,36.069377593742864
52.354409499999996,4.9297638,Gewoon Kaas,SHOP_CONFECTIONERY,36.069377593742864
47.358531,8.531938900000002,Eni Seestrasse,TRANSPORT_FUEL,36.09709129556009
51.1508412,14.9834755,McPaper,SHOP_COPYSHOP,36.11094017053558
47.171440999999994,8.5154655,Ascot,FOOD_CAFE,36.124783736376884
50.8289482,4.345206200000002,Ecole du Parvis,EDUCATION_SCHOOL,36.124783736376884
52.355173,4.9289667,Kediri,FOOD_RESTAURANT,36.124783736376884
50.882602,12.077541,Blumen Eismann,SHOP_FLORIST,36.1386219991853
50.877247,12.075999000000001,Habibi Shisha Bar,FOOD_BAR,36.1386219991853
48.14695220000001,11.5349382,Peaches,FOOD_RESTAURANT,36.1386219991853
50.8824505,12.0767405,Hauptbahnhof/Theater,TRANSPORT_TRAMSTOP,36.1386219991853
50.87723010000001,12.0796208,Gera,POI_TOWN,36.15245496505044
50.8787419,12.0862966,Grüner Leichtsinn,SHOP_FLORIST,36.15245496505044
47.6346206,6.8580985,Square Géant,LANDUSE_GRASS,36.16628264005025
51.1507313,14.9837079,Bijou Brigitte,SHOP_JEWELRY,36.16628264005025
47.6363441,6.857760099999999,Domino's Pizza,FOOD_FASTFOOD,36.18010503025109
47.6350938,6.8571155,Les Jardins d'Aladin,FOOD_RESTAURANT,36.18010503025109
50.8775105,12.0821612,Targobank,MONEY_BANK,36.20773398046335
52.4117264,16.9075773,Telimena,SHOP_CLOTHES,36.20773398046335
52.3548347,4.9291383,Pizzeria Pescara,FOOD_RESTAURANT,36.20773398046335
50.8238153,4.3517651,B&B Computer,SHOP_COMPUTER,36.20773398046335
50.829721899999996,4.3458079000000005,Bibliothèque communale de Saint-Gilles,AMENITY_LIBRARY,36.22154055254967
47.2559179,11.398470800000002,Kassian's Bikeroutfit,SHOP_CLOTHES,36.22154055254967
42.700154100000006,2.8870955,Janson Confetti,SHOP_CLOTHES,36.22154055254967
49.803629799999996,9.9295935,Historisches Archiv im Alten Gaswerk,TOURIST_MUSEUM,36.23534186398688
52.354738399999995,4.9287816,MS Mode,SHOP_CLOTHES,36.23534186398688
48.222923,16.386585,Volkertviertel,POI_HAMLET,36.24913792078372
47.3590067,8.5298001,Grabmal Guido Otto Wesendonck,TOURIST_ART,36.262928728937496
47.3600563,8.5309544,Kindergarten Grütli I + II,EDUCATION_NURSERY,36.262928728937496
50.8245189,4.3480959000000015,Chopp 10,FOOD_PUB,36.27671429443411
47.3603173,8.5309988,Jüdische Schule NOAM,EDUCATION_SCHOOL,36.29049462324811
50.8287976,4.370774,Dolma,SHOP_SUPERMARKET,36.304269721342685
50.828624100000006,4.3725125,Velofixer,SHOP_BICYCLE,36.318039594669756
47.16993520000001,8.5159663,Herren Globus,SHOP_CLOTHES,36.3318042491699
50.8283465,4.3724215,Frit Flagey,FOOD_FASTFOOD,36.3318042491699
50.876381,12.079562199999998,Backshop,SHOP_BAKERY,36.345563690772494
50.8383155,4.395325499999998,Maison Cauchie - Cauchie-Huis,TOURIST_MUSEUM,36.345563690772494
50.83830560000001,4.3970066,Ambasada Rzeczypospolitej Polskiej (Wydział Konsularny),POI_EMBASSY,36.345563690772494
50.9233722,11.590898800000002,Kernbergschänke,FOOD_PUB,36.345563690772494
59.91982629999999,10.724165300000001,Embassy Of the Republic Of Korea,POI_EMBASSY,36.359317925395686
47.635668700000004,6.8575049,Les Capucins,ACCOMMO_HOTEL,36.37306695894642
50.8810598,12.0770319,Dres. med. Baum & Beier,HEALTH_DOCTORS,36.37306695894642
50.8810225,12.077085499999999,Dres. med. dent. Ehlich,HEALTH_DENTIST,36.37306695894642
48.166852399999996,11.5759716,Umzüge Daul,SHOP_DEPARTMENTSTORE,36.38681079732051
47.3595446,8.530241400000001,Villa Schönberg,TOURIST_MUSEUM,36.40054944640259
47.3595265,8.5302071,Bibliothek Museum Rietberg,AMENITY_LIBRARY,36.40054944640259
50.0998662,14.402949800000002,Divers klub,SHOP_DEPARTMENTSTORE,36.40054944640259
50.8289229,4.347066099999998,École communale du Parvis,EDUCATION_SCHOOL,36.41428291206625
52.4090078,16.9032513,Kraszewskiego,TRANSPORT_TRAMSTOP,36.41428291206625
51.1527559,14.9780109,Lutherkirche,POW_CHRISTIAN,36.41428291206625
47.170344,8.5159922,The Body Shop,SHOP_HAIRDRESSER,36.41428291206625
49.485423,8.4475368,dm,SHOP_SUPERMARKET,36.41428291206625
47.1704315,8.516013599999999,Fielmann,SHOP_DEPARTMENTSTORE,36.41428291206625
52.41202120000001,16.9075385,Księgarnia Nowela,SHOP_BOOK,36.42801120017397
51.7569344,14.3301813,Media Center,SHOP_PHONE,36.441734316577204
50.8359581,4.397802099999999,Le soleil à table,FOOD_FASTFOOD,36.441734316577204
47.3830175,8.548154199999999,Winkelriedstrasse,TRANSPORT_TRAMSTOP,36.441734316577204
47.6365326,6.8576838,Flam's Restaurant,FOOD_RESTAURANT,36.441734316577204
52.3552513,4.9228914,Michel-Inn,FOOD_RESTAURANT,36.441734316577204
50.8790555,12.078261099999999,Qui,TOURIST_NIGHTCLUB,36.441734316577204
51.7786374,19.443596499999998,CCC,SHOP_SHOES,36.455452267116364
52.3551421,4.928878599999999,Bar Wisse,FOOD_CAFE,36.455452267116364
51.1490234,14.9876217,Dipl.-Med. Mariusz Barczyk,HEALTH_DOCTORS,36.455452267116364
47.6353401,6.8568686,Brit Hotel Belfort Centre - Boreal,ACCOMMO_HOTEL,36.455452267116364
47.3589274,8.5302115,Villa Wesendonck,TOURIST_MUSEUM,36.469165057620934
50.877719299999995,12.0828416,Döner,FOOD_FASTFOOD,36.4828726939094
50.827659000000004,4.3473611,Itinéraires AMO,SPORT_CLIMBING,36.4828726939094
47.3590229,8.530449699999998,Vier Figuren,TOURIST_ART,36.4828726939094
47.6367026,6.857200099999999,Okaidi,SHOP_CLOTHES,36.4828726939094
52.354811700000006,4.928669,Leger des Heils,SHOP_CLOTHES,36.4828726939094
50.8772207,12.0755903,PitStop,SHOP_CARREPAIR,36.4828726939094
47.3603992,8.5323249,Coiffure Hairtime,SHOP_HAIRDRESSER,36.496575181789325
47.36022970000001,8.5305317,Turnhalle Gabler,EDUCATION_SCHOOL,36.496575181789325
52.354985,4.9289051,Fiets & Meer,SHOP_BICYCLE,36.496575181789325
50.82375220000001,4.3516860999999984,Duc Pétiaux,SHOP_BICYCLE,36.496575181789325
48.166858500000004,11.574043699999999,Karl-Theodor-Straße,TRANSPORT_TRAMSTOP,36.51027252705737
48.1667951,11.5740299,Karl-Theodor-Straße,TRANSPORT_TRAMSTOP,36.51027252705737
52.366890399999996,4.9294277,Cc Branderij,FOOD_CAFE,36.51027252705737
47.1712616,8.5155698,Optic Schumpf,SHOP_DEPARTMENTSTORE,36.523964735499355
50.8778245,12.083111500000001,Vitalis-Apotheke,HEALTH_PHARMACY,36.523964735499355
47.3591101,8.5305711,Sphinxe,TOURIST_ART,36.523964735499355
51.1507083,14.983286900000001,Jeans Welt,SHOP_CLOTHES,36.523964735499355
50.82844650000001,4.3726812000000015,Brüsel,SHOP_BOOK,36.523964735499355
47.1701981,8.515970699999999,Scooter Fashion Shop,SHOP_DEPARTMENTSTORE,36.523964735499355
52.411699799999994,16.907662600000002,"Biuro Podróży ""Gromada""",SHOP_DEPARTMENTSTORE,36.523964735499355
47.36037020000001,8.530994999999999,Jüdische Schule Noam,EDUCATION_SCHOOL,36.523964735499355
47.3597047,8.531843400000001,Sternen Da Guido,FOOD_RESTAURANT,36.53765181289022
47.3601777,8.5226813,Wirtschaft Zur Au,FOOD_RESTAURANT,36.55133376499413
50.8301374,4.3558523000000005,Tero,FOOD_RESTAURANT,36.55133376499413
50.877289399999995,12.081122599999999,Cafe Bachgasse,FOOD_CAFE,36.56501059756445
51.1505222,14.983383499999999,Modehaus Rauer,SHOP_CLOTHES,36.56501059756445
47.5664665,7.597465700000001,Aparthotel,ACCOMMO_HOTEL,36.56501059756445
47.9856472,7.8477128,ALDI,SHOP_SUPERMARKET,36.56501059756445
49.4851144,8.4475358,C&A,SHOP_CLOTHES,36.57868231634377
50.882461600000006,12.0878939,Turnhalle - Zabel-Gymnasium Haus Schiller,EDUCATION_SCHOOL,36.59234892706397
49.485476899999995,8.4469779,Blume 2000,SHOP_FLORIST,36.59234892706397
47.6365969,6.856986900000001,Alembert Les Montres,SHOP_JEWELRY,36.60601043544625
50.0658068,14.439995800000002,Otakar,ACCOMMO_HOTEL,36.60601043544625
47.636631200000004,6.8568983999999995,Athmosph'Hair,SHOP_HAIRDRESSER,36.60601043544625
50.829739399999994,4.3456913,La Maison du Livre,AMENITY_LIBRARY,36.60601043544625
47.6366421,6.8569856,Fnac,SHOP_BOOK,36.60601043544625
50.923805,11.577096300000001,Rad Ambulanz,SHOP_BICYCLE,36.61966684720111
52.409079399999996,16.9027602,Kraszewskiego,TRANSPORT_TRAMSTOP,36.61966684720111
50.923637799999995,11.577441699999998,Heimatkiosk,SHOP_GIFT,36.61966684720111
50.8261391,4.3483108,Super Monkey,SHOP_CONVENIENCE,36.61966684720111
52.4098858,16.905514399999998,Centrum wspomagania rozwoju dzieci i młodzieży,EDUCATION_NURSERY,36.61966684720111
50.8367025,4.396293,Les Fontaines,FOOD_PUB,36.633318168028396
50.8824633,12.087435800000002,Schulmuseum,TOURIST_MUSEUM,36.64696440361739
50.8756196,12.0763949,Xenos,SHOP_DEPARTMENTSTORE,36.64696440361739
50.8397421,4.3939474,Autoworld Brasserie,FOOD_RESTAURANT,36.64696440361739
52.4124315,16.9077872,Prywatne Gimnazjum oraz Liceum Językowo-Informatyczne,EDUCATION_SCHOOL,36.64696440361739
47.3595542,8.529492900000001,Quartiertreff Enge,AMENITY_PLAYGROUND,36.64696440361739
47.6365895,6.8582365,Théatre Granit,TOURIST_THEATRE,36.64696440361739
47.38831,8.539203500000001,Kronenstrasse,TRANSPORT_TRAMSTOP,36.64696440361739
47.359438399999995,8.5295483,Quartiertreff Enge,FOOD_CAFE,36.64696440361739
50.879827399999996,12.078514,Murphy´s Pub,FOOD_PUB,36.66060555964672
50.883001799999995,12.078795699999999,Klimperkasten,FOOD_RESTAURANT,36.66060555964672
47.6361164,6.8576742,BNP Paribas,MONEY_BANK,36.66060555964672
50.882946200000006,12.0787816,Downtown,FOOD_RESTAURANT,36.66060555964672
47.633655600000004,6.8570744999999995,Pharmacie Notre-Dame,HEALTH_PHARMACY,36.6742416417845
47.636732200000004,6.8576005,Banque Populaire,MONEY_BANK,36.6742416417845
47.6368427,6.857255099999999,Les Faubourgs,SHOP_DEPARTMENTSTORE,36.6742416417845
50.838250099999996,4.3971557,L'Alternative,FOOD_PUB,36.68787265568828
47.1714789,8.516556199999998,Thai,FOOD_RESTAURANT,36.68787265568828
47.2739832,11.3969883,Haus der Begegnung,TOURIST_ART,36.68787265568828
50.829158299999996,4.3445046,Proxy Barrière St-Gilles,SHOP_SUPERMARKET,36.701498607005135
47.636939399999996,6.856749499999999,Micromania,SHOP_DEPARTMENTSTORE,36.701498607005135
47.63764260000001,6.8612746,Tour 46,TOURIST_MUSEUM,36.701498607005135
49.4845921,8.444705800000001,Merkez Camii,POW_ISLAMIC,36.701498607005135
50.824771399999996,4.3524089,Cafe Santa Marta,FOOD_CAFE,36.701498607005135
50.8762162,12.078414500000001,hunkemöller,SHOP_CLOTHES,36.701498607005135
50.8762071,12.078386300000002,Depot,SHOP_DEPARTMENTSTORE,36.701498607005135
51.150636,14.983168099999999,Mayer's,SHOP_SHOES,36.701498607005135
47.359570500000004,8.5298434,Richard Wagner,TOURIST_MEMORIAL,36.71511950137164
47.255863899999994,11.399141,Buddhist Center - Diamondway Buddhism Innsbruck,POW_BUDDHIST,36.71511950137164
47.3612318,8.535692300000001,Kiosk am Hafen Enge,SHOP_KIOSK,36.728735344413906
52.355831,4.9276727,Cafe Sport,FOOD_PUB,36.728735344413906
50.8281049,4.347988,Liaison Parme-Morichar,LANDUSE_GRASS,36.74234614174768
47.359641499999995,8.529943300000001,Figur und Pferd,TOURIST_ART,36.74234614174768
50.8772372,12.081755699999999,Galeria Kaufhof,SHOP_SUPERMARKET,36.75595189897821
50.87613010000001,12.078433,mister*lady,SHOP_CLOTHES,36.76955262170047
47.6369766,6.8569259,Les Artisans du Pain,SHOP_BAKERY,36.76955262170047
47.636971,6.8568191999999994,Un Jour Ailleurs,SHOP_CLOTHES,36.76955262170047
52.3548104,4.9280957999999995,Mojo,FOOD_RESTAURANT,36.78314831549904
47.3603828,8.529958,Schule Gabler,EDUCATION_SCHOOL,36.7967389859482
52.35494420000001,4.928468,Haedanghwa,FOOD_RESTAURANT,36.7967389859482
47.6346128,6.8572809999999995,Boulangerie Monin,SHOP_BAKERY,36.7967389859482
47.359171999999994,8.5299512,Remise,TOURIST_MUSEUM,36.810324638611924
50.8297991,4.346106400000001,Parvis de Saint-Gilles - Sint-Gillisvoorplein,TRANSPORT_TRAMSTOP,36.810324638611924
47.392570899999996,8.537627800000001,SAW-Siedlung Schaffhauserplatz,AMENITY_PUBLICBUILDING,36.810324638611924
52.354891200000004,4.9290690999999995,Manwood,SHOP_SHOES,36.823905279043935
50.9235754,11.5776059,teilAuto Station Westbahnhof,TRANSPORT_RENTALCAR,36.837480912787726
50.876063099999996,12.078323300000001,Jeans Fritz,SHOP_CLOTHES,36.86461718233353
49.484612299999995,8.4455749,Moni's Nudelhaus,FOOD_RESTAURANT,36.86461718233353
51.7578524,14.331163199999999,Thalia,SHOP_BOOK,36.86461718233353
50.8759814,12.078207699999998,Thalia,SHOP_BOOK,36.87817782917155
47.3592703,8.5315496,Rieterpark/Gablerstrasse,AMENITY_PLAYGROUND,36.87817782917155
50.8759492,12.078095,Esprit,SHOP_CLOTHES,36.87817782917155
50.826056099999995,4.3475621,Forbidden Zone,SHOP_BOOK,36.87817782917155
52.3555757,4.9248708,Efes,FOOD_PUB,36.87817782917155
50.876238799999996,12.0786185,H&M,SHOP_CLOTHES,36.87817782917155
48.1924481,16.3044034,Bahnhof Penzing,TRANSPORT_STATION,36.87817782917155
49.48576,8.4449638,Tchibo,FOOD_CAFE,36.89173349139343
47.1703513,8.5160995,Topas,TOURIST_NIGHTCLUB,36.89173349139343
52.354902100000004,4.9285135,ABN AMRO,MONEY_BANK,36.90528417449187
50.824413,4.3505282,The Skull,SHOP_BOOK,36.90528417449187
50.9232953,11.5778466,Jena West,TRANSPORT_STATION,36.90528417449187
48.223106200000004,16.3859773,Ballsy,FOOD_RESTAURANT,36.90528417449187
49.485134499999994,8.4461288,Istikbal Mobilya,SHOP_DEPARTMENTSTORE,36.90528417449187
50.87627420000001,12.0813632,Goethe Gymnasium/Rutheneum,EDUCATION_SCHOOL,36.91882988394946
47.637127899999996,6.8581928,Place du Docteur Georges Corbis,TOURIST_FOUNTAIN,36.91882988394946
48.1966885,16.3097223,Kent Bäckerei,SHOP_BAKERY,36.91882988394946
51.756878799999996,14.3307133,Santander Consumer Bank,MONEY_BANK,36.93237062523877
47.636831,6.8596305,Pyramide,TOURIST_ART,36.93237062523877
47.1704023,8.5162497,Beck,SHOP_BAKERY,36.93237062523877
50.8764995,12.079191999999999,Intersport Gießübel,SHOP_MOTORCYCLE,36.93237062523877
42.6992633,2.8866291,Ibis Perpignan Centre,ACCOMMO_HOTEL,36.959437225152655
48.2232215,16.3860439,Zur Finka,FOOD_CAFE,36.959437225152655
50.0987679,14.4020864,Obuv Bona,SHOP_SHOES,36.959437225152655
59.921102299999994,10.728772900000001,Rema 1000,SHOP_SUPERMARKET,36.959437225152655
47.172038,8.517564,UBS,MONEY_BANK,36.959437225152655
50.8765221,12.0789207,Gamestop,SHOP_TOYS,36.972963094672295
50.876073299999995,12.0786912,Nordsee,FOOD_FASTFOOD,36.972963094672295
50.8764876,12.078974800000001,CCC,SHOP_SHOES,36.972963094672295
50.8762375,12.0818653,Johannisplatz,LANDUSE_GRASS,36.972963094672295
51.15359760000001,14.9776723,Stiftung Diakonie Görlitz Altenpflegeheim Bethanien,AMENITY_PUBLICBUILDING,36.972963094672295
51.7578643,14.334393799999999,Bierkeller Cottbus,FOOD_PUB,36.98648401781386
50.877438,12.083134199999998,Sorge/Markt,TRANSPORT_TRAMSTOP,36.98648401781386
47.63690510000001,6.8566784,Bocage,SHOP_SHOES,36.98648401781386
50.8244506,4.3503940000000005,Cipac,SHOP_DIY,37.0
47.1711958,8.5164581,Denner,SHOP_SUPERMARKET,37.0
47.63706320000001,6.8570592999999995,Caroll,SHOP_CLOTHES,37.013511046643494
47.6371265,6.8571827,Séphora,SHOP_DEPARTMENTSTORE,37.013511046643494
50.8256722,4.3476894,Da Momo,FOOD_RESTAURANT,37.013511046643494
50.8273999,4.3461006,École Peter Pan,EDUCATION_SCHOOL,37.02701716314724
51.1495201,14.984696,Schlemmerpilz,FOOD_CAFE,37.02701716314724
47.63704960000001,6.859339200000001,CIC,MONEY_BANK,37.02701716314724
48.5728094,7.7567924,Colonne de Strasbourg,TOURIST_MEMORIAL,37.02701716314724
47.6336029,6.8569495,Pharmcie Notre-Dame,HEALTH_PHARMACY,37.02701716314724
50.8763624,12.0789603,Tayler,SHOP_CLOTHES,37.04051835490427
50.099033500000004,14.402188800000001,U Veverky,FOOD_RESTAURANT,37.04051835490427
50.876343799999994,12.079361,dm - Drogerie,SHOP_CONVENIENCE,37.04051835490427
50.8770698,12.081624699999999,Rossmann,SHOP_CONVENIENCE,37.04051835490427
50.8761659,12.0790647,TOM TAILOR,SHOP_CLOTHES,37.04051835490427
50.87725089999999,12.082984800000002,Asia Imbiss,FOOD_FASTFOOD,37.04051835490427
52.3635964,4.9361736,Stomerij en kledingreparatie Medina,SHOP_LAUNDRETTE,37.05401462729781
50.8808906,12.0773265,Neue Apotheke,HEALTH_PHARMACY,37.06750598570128
50.8764162,12.079507199999998,engbers,SHOP_CLOTHES,37.06750598570128
50.8761033,12.0788984,Colloseum,SHOP_CLOTHES,37.08099243547832
50.0987885,14.402185999999999,Mammina vše pro těhotné,SHOP_CLOTHES,37.08099243547832
50.875878,12.0778847,A3 Sports,SHOP_CLOTHES,37.08099243547832
49.4853131,8.447219300000002,Bloom's,SHOP_HAIRDRESSER,37.08099243547832
50.8772933,12.082831500000001,Sorge/Markt,TRANSPORT_TRAMSTOP,37.08099243547832
50.8764301,12.079165199999998,New Yorker,SHOP_CLOTHES,37.094473981982816
50.09949520000001,14.4023534,Rehabilitace,HEALTH_DOCTORS,37.094473981982816
50.0995448,14.4023766,Kadeřnictví,SHOP_HAIRDRESSER,37.094473981982816
50.87634110000001,12.0795084,Tasche & Co,SHOP_DEPARTMENTSTORE,37.094473981982816
48.193734899999995,16.3083593,Elektro-Shop Köck GmbH,SHOP_HIFI,37.094473981982816
50.87699979999999,12.0814308,Elsterforum,SHOP_SUPERMARKET,37.10795063055895
47.63736770000001,6.8571048999999995,Feeling,SHOP_CLOTHES,37.10795063055895
50.8770174,12.081292199999998,Fotostudio Click Fabrik,SHOP_DEPARTMENTSTORE,37.10795063055895
52.3638949,4.9375552,Licht & Wonen,SHOP_DEPARTMENTSTORE,37.10795063055895
50.8821006,12.0876683,"Zabel-Gymnasium, Haus Schiller",EDUCATION_SCHOOL,37.10795063055895
47.6373424,6.8570499000000025,À la Civette Belfortaine,SHOP_NEWSPAPER,37.10795063055895
52.3639125,4.937512,Derya Haarstudio,SHOP_HAIRDRESSER,37.10795063055895
47.3827084,8.549157300000001,Schrödinger's Cat,TOURIST_ART,37.10795063055895
51.1505372,14.983016399999999,Mäc-Geiz,SHOP_CONVENIENCE,37.12142238654117
50.833789,4.3963361,Pharmacie du Rinsdelle,HEALTH_PHARMACY,37.12142238654117
51.7575778,14.333025,Deutsche Bank,MONEY_BANK,37.134889255254286
51.7577625,14.333324300000001,Spremberger Turm,POI_TOWERLOOKOUT,37.134889255254286
47.566435999999996,7.597422,Tapeo Tapas Bar La Terraza,FOOD_RESTAURANT,37.134889255254286
47.633511299999995,6.8625266000000025,Mosquée Kuba,POW_ISLAMIC,37.134889255254286
50.8761135,12.0789231,Chelsea,SHOP_CLOTHES,37.14835124201342
52.4092892,16.905712,Dawna zajezdnia tramwajowa przy Gajowej,POI_CRANE,37.14835124201342
51.7577789,14.331340099999998,Medimax,SHOP_HIFI,37.1618083521241
49.628112,8.359407000000001,Asia Peking,FOOD_FASTFOOD,37.17526059088221
49.485565799999996,8.442039300000001,Apollo,SHOP_DEPARTMENTSTORE,37.17526059088221
47.36035089999999,8.529752,Schulhaus Gabler,EDUCATION_SCHOOL,37.17526059088221
50.875889799999996,12.0779724,Deichmann,SHOP_SHOES,37.17526059088221
51.1504396,14.983255900000001,Bonita,SHOP_CLOTHES,37.188707963574096
49.1840998,16.605062,BikeZone,SHOP_BICYCLE,37.188707963574096
49.4852592,8.447933599999999,REWE,SHOP_SUPERMARKET,37.188707963574096
50.837159899999996,4.3953140999999984,Au petit Stella,FOOD_CAFE,37.20215047547654
50.83720770000001,4.395304,Lavoir Saint Pierre,SHOP_LAUNDRETTE,37.20215047547654
50.82826179999999,4.372984,Fernando Pessoa,TOURIST_ART,37.20215047547654
47.1717278,8.5168829,Bossard,SHOP_BAKERY,37.20215047547654
52.3638978,4.9377223,Slagerij Het Lange Mes,SHOP_SUPERMARKET,37.21558813185679
50.82435039999999,4.3505560999999995,Cipac Wear,SHOP_DIY,37.21558813185679
50.828051,4.3731995,Belfius,MONEY_BANK,37.21558813185679
50.876638899999996,12.0820508,Beans Coffee News,FOOD_CAFE,37.21558813185679
42.698432000000004,2.8870138,Casino,SHOP_SUPERMARKET,37.22902093797257
49.484407,8.444301699999999,Sparda-Bank Südwest eG,MONEY_BANK,37.22902093797257
52.3639092,4.93763,Ahmet Haarstudio,SHOP_HAIRDRESSER,37.22902093797257
52.3639125,4.9374047,Divan Patisserie,SHOP_BAKERY,37.242448899072144
50.8256646,4.3476947,Da Momo,FOOD_RESTAURANT,37.242448899072144
51.15184770000001,14.979429099999999,AWO Altenpflegehaus Zentralhospital Görlitz,AMENITY_PUBLICBUILDING,37.242448899072144
50.8758891,12.076665,Kaufland,SHOP_SUPERMARKET,37.242448899072144
48.2230537,16.385955900000006,Meydan,FOOD_FASTFOOD,37.242448899072144
50.8257103,4.3476973,Kitchenette,FOOD_CAFE,37.242448899072144
51.7598422,14.3344733,Wendisches Museum,TOURIST_MUSEUM,37.25587202039432
48.1473508,11.5348281,Lotto Goebels,AMENITY_POSTOFFICE,37.25587202039432
51.7590562,14.324117900000001,Deniro,FOOD_RESTAURANT,37.25587202039432
50.8764765,12.0803622,Geraer Löwe (mit goldenem Spatz),TOURIST_ART,37.269290307168454
47.1720059,8.516691699999999,Gotthardplatz,TOURIST_FOUNTAIN,37.28270376461449
50.099639700000004,14.4024079,Oregano byliny,SHOP_SUPERMARKET,37.29611239794304
47.637269399999994,6.8576763,LCL,MONEY_BANK,37.29611239794304
50.8774394,12.0838679,Literaturcafé Schuhschnabel,FOOD_CAFE,37.29611239794304
47.637421999999994,6.857717,Corbis,SHOP_BICYCLE,37.29611239794304
47.6348154,6.8565728,Pendjab,FOOD_RESTAURANT,37.29611239794304
47.6372033,6.8590522,Fleurs Blanc,SHOP_FLORIST,37.29611239794304
50.883332,12.085726699999999,Evangelisch-Freikirchliche Gemeinde,POW_CHRISTIAN,37.309516212355256
51.75674470000001,14.335730700000001,Cottbus - Chóśebuz,POI_CITY,37.322915213043046
49.4849723,8.4463555,Sixt Autovermietung,TRANSPORT_RENTALCAR,37.336309405188935
50.823985799999996,4.3498268,Almata,SHOP_CONVENIENCE,37.336309405188935
51.7562514,14.3318668,Weltspiegel,TOURIST_CINEMA,37.336309405188935
47.1721817,8.5167933,Negishi,FOOD_RESTAURANT,37.349698793966205
50.8303096,4.3450399000000015,ING,MONEY_BANK,37.36308338453881
50.099425200000006,14.4023261,Čistírna,SHOP_LAUNDRETTE,37.36308338453881
47.1711342,8.516437,Coop,FOOD_FASTFOOD,37.37646318206153
50.8248605,4.348790900000001,Carrefour Express,SHOP_CONVENIENCE,37.37646318206153
50.8758586,12.077186900000001,Gera Arcaden,SHOP_SUPERMARKET,37.37646318206153
51.1522456,14.978978699999999,Innenstadt,POI_SUBURB,37.37646318206153
47.6372352,6.856745699999999,Pharmacie Centrale,HEALTH_PHARMACY,37.38983819167984
51.7577531,14.333612300000002,Targobank,MONEY_BANK,37.40320841853009
52.410804999999996,16.9073848,Jeżycka Poradnia Medycyny Rodzinnej,HEALTH_DOCTORS,37.416573867739416
47.3888013,8.538871499999999,Denner Express,SHOP_CONVENIENCE,37.416573867739416
47.1707987,8.516603300000002,Thai,FOOD_FASTFOOD,37.416573867739416
48.222972999999996,16.385908999999998,Nelke,FOOD_RESTAURANT,37.42993454442581
51.14979320000001,14.983238199999999,Gunter Ende,SHOP_HIFI,37.42993454442581
50.8260188,4.3474306,André - Coiffeur Dames,SHOP_HAIRDRESSER,37.44329045369811
48.22232620000001,16.3871131,L' Ase,FOOD_RESTAURANT,37.45664160065608
51.7607539,14.333259699999996,Craftbeer-Bar Labyrinth,FOOD_PUB,37.46998799039039
47.172265100000004,8.5161479,Verkehrsausbildungszentrum Zug,EDUCATION_SCHOOL,37.483329627982634
47.634632700000004,6.8595536999999975,École Élémentaire Victor Hugo,EDUCATION_SCHOOL,37.483329627982634
49.4854626,8.444006300000002,Toys'R us,SHOP_TOYS,37.483329627982634
50.8244245,4.3509694,Moris,TRANSPORT_TRAMSTOP,37.483329627982634
47.1721476,8.5176031,Zara,SHOP_CLOTHES,37.49666651850536
47.1710704,8.516456100000001,Coop,FOOD_RESTAURANT,37.49666651850536
50.876777000000004,12.0819838,Pfennigpfeiffer,SHOP_CONVENIENCE,37.49666651850536
50.8737815,12.085801400000001,1880 Lofthaus,ACCOMMO_HOTEL,37.5099986670221
47.6391696,6.859120599999999,DANIEL CHILLES,HEALTH_DOCTORS,37.52332607858744
50.8764828,12.082315,Commerzbank,MONEY_BANK,37.53664875824692
50.8265237,4.3469288,Athenée Royal Victor Horta,EDUCATION_SCHOOL,37.53664875824692
47.1711506,8.5166116,Neustadt,SHOP_SUPERMARKET,37.53664875824692
52.4116015,16.9079538,Rossmann,SHOP_CONVENIENCE,37.53664875824692
51.1531532,14.978810800000002,Stadtbibliothek Görlitz,AMENITY_LIBRARY,37.53664875824692
48.8955599,2.3923240000000003,Le Cabaret Sauvage,TOURIST_THEATRE,37.54996671103717
51.7576545,14.332038500000001,Injoy,SPORT_LEISURECENTER,37.54996671103717
49.485073799999995,8.445557,La Casa di Laul,FOOD_RESTAURANT,37.54996671103717
50.922615500000006,11.590675,Seidelhaus,EDUCATION_NURSERY,37.54996671103717
47.4176347,8.545156,Emil-Oberhänsli-Anlage,LANDUSE_GRASS,37.5632799419859
52.411837899999995,16.9085496,Soda hostel & apartments,ACCOMMO_HOSTEL,37.5632799419859
50.82934470000001,4.3445656999999995,Centre Culturel Jacques Franck,TOURIST_ART,37.576588456111864
51.149676299999996,14.981354500000002,Buchbinderei Bernhard Rohr,SHOP_BOOK,37.576588456111864
48.192321899999996,16.3022834,Eduard-Gurk-Park,LANDUSE_GRASS,37.576588456111864
50.8339175,4.3950334,Okay,SHOP_DEPARTMENTSTORE,37.576588456111864
51.1503946,14.983177300000001,anika schuh,SHOP_SHOES,37.576588456111864
47.6387232,6.859426299999999,La Coupe,SHOP_HAIRDRESSER,37.576588456111864
47.6388091,6.859441099999999,Lulu de Cavagnac,FOOD_RESTAURANT,37.576588456111864
51.149864,14.983062799999999,Klose,SHOP_BUTCHER,37.603191353926334
50.876584,12.0827156,Stadt-Apotheke,HEALTH_PHARMACY,37.603191353926334
50.8298662,4.3461684,Parvis de Saint-Gilles - Sint-Gillisvoorplein,TRANSPORT_TRAMSTOP,37.603191353926334
47.3626164,8.5348112,Rentenanstalt,SHOP_BICYCLE,37.603191353926334
49.479868100000004,8.4391766,Hairstylist Gerhard,SHOP_HAIRDRESSER,37.616485747608046
50.0986427,14.4020405,Agátin svět,SHOP_TOYS,37.616485747608046
52.355915700000004,4.9276337,'t Buideltje,SHOP_DEPARTMENTSTORE,37.616485747608046
51.7579555,14.331422199999999,TK Maxx,SHOP_CLOTHES,37.616485747608046
47.2685938,11.382141599999999,Mayrhofer,SHOP_DEPARTMENTSTORE,37.616485747608046
51.150338700000006,14.983103,Hussel,SHOP_CONFECTIONERY,37.616485747608046
51.7577287,14.332159400000002,City Apotheke,HEALTH_PHARMACY,37.616485747608046
51.7576554,14.3321383,Spielemax,SHOP_TOYS,37.629775444453564
51.1499938,14.9826544,Geers,SHOP_HEARINGAIDS,37.629775444453564
49.479236,8.439117,Ludwigshafen am Rhein,POI_CITY,37.629775444453564
51.1499191,14.983193900000002,Mode B.,SHOP_CLOTHES,37.629775444453564
50.87663920000001,12.0806189,Stadtmuseum,TOURIST_MUSEUM,37.629775444453564
52.3636269,4.9357530999999994,Bar Basquiat,FOOD_BAR,37.629775444453564
50.876700899999996,12.082638099999999,Tête à Tête,SHOP_CONVENIENCE,37.64306044943742
50.8766807,12.0824914,Reformhaus Tonndorf,SHOP_SUPERMARKET,37.64306044943742
47.1709854,8.516434599999998,Coop,SHOP_SUPERMARKET,37.64306044943742
50.8759186,12.0799519,Nagelstudio,SHOP_HAIRDRESSER,37.64306044943742
53.1279875,17.9941247,Wyższa Szkoła Gospodarki w Bydgoszczy,EDUCATION_COLLEGE,37.64306044943742
42.6975218,2.8875577999999997,Pharmacie Lautier,HEALTH_PHARMACY,37.64306044943742
47.171373700000004,8.5171835,Farben Center,SHOP_DEPARTMENTSTORE,37.64306044943742
51.1499456,14.9826109,Juwelier Voigt,SHOP_JEWELRY,37.65634076752546
48.14818870000001,11.542588,Buddha-Haus München,POW_BUDDHIST,37.65634076752546
50.8301843,4.3442804000000015,Brasserie Verschueren,FOOD_CAFE,37.669616403674716
47.638585,6.8605931,Groupama,MONEY_BANK,37.669616403674716
47.386113200000004,8.5452851,Kreis 6,FOOD_RESTAURANT,37.68288736283355
51.1500778,14.983111,Kings Pub,FOOD_PUB,37.68288736283355
50.8302695,4.3437642,"Service des quartiers ""Parvis""",AMENITY_POLICE,37.68288736283355
50.8394571,4.393554099999999,Autoworld,TOURIST_MUSEUM,37.69615364994153
52.408133899999996,16.904906,Stare Zoo,TOURIST_ZOO,37.69615364994153
47.6381096,6.8599507,Caput,SHOP_BAKERY,37.70941526992961
49.484834,8.4452781,Die Praxis am Ludwigsplatz,HEALTH_DOCTORS,37.70941526992961
49.4848775,8.4452535,Mythos Taverna,FOOD_RESTAURANT,37.70941526992961
45.45083870000001,9.1964404,Banca Ubi Banca Popolare commercio & industria,MONEY_BANK,37.70941526992961
47.256082,11.389402800000001,Arnold Digitaldruck,SHOP_COPYSHOP,37.70941526992961
52.3636013,4.937096299999999,Woman's World hair and Beautyshop,SHOP_HAIRDRESSER,37.72267222772003
51.1504148,14.9828424,Commerzbank,MONEY_BANK,37.72267222772003
52.363612700000004,4.9371822,Elthetokerk,POW_CHRISTIAN,37.72267222772003
51.1484881,14.9879318,Evangelisch-Reformierte Gemeinde,POW_CHRISTIAN,37.735924528226406
50.8763995,12.082866000000001,Gänseblümchen Blumenladen,SHOP_FLORIST,37.74917217635375
51.1497518,14.981518300000001,Preuß-Orthopädie,SHOP_SHOES,37.7624151769984
47.6368147,6.8564826,Optique 2000,SHOP_DEPARTMENTSTORE,37.7624151769984
50.875828399999996,12.0778571,Arcaden-Apotheke,HEALTH_PHARMACY,37.7624151769984
47.6381539,6.8601398,Coquelicot,SHOP_FLORIST,37.7624151769984
48.2229038,16.3859413,Fischinsel,FOOD_RESTAURANT,37.78888725538236
51.1505641,14.980550099999999,Edeka,SHOP_SUPERMARKET,37.8021163428716
50.8760679,12.078843899999999,Douglas,SHOP_CONVENIENCE,37.8021163428716
50.8297766,4.347545200000001,Académie des Beaux-Arts J.J. Gailliard,EDUCATION_SCHOOL,37.8021163428716
47.637836799999995,6.8579319000000005,Place du Docteur Georges Corbis,TOURIST_FOUNTAIN,37.8021163428716
50.8759288,12.078477900000001,Wolf,SHOP_BUTCHER,37.815340802378074
51.1501859,14.982903400000001,S18,SHOP_CLOTHES,37.815340802378074
51.1503202,14.982616199999999,Back Factory,SHOP_BAKERY,37.815340802378074
47.417685399999996,8.5459176,Food + Net Logitharajah,SHOP_CONVENIENCE,37.815340802378074
47.638369899999994,6.8599479999999975,Revegee,SHOP_DEPARTMENTSTORE,37.82856063875548
47.6383926,6.8600438,Olivier Rossé,SHOP_HAIRDRESSER,37.82856063875548
47.4756412,8.3043679,Restaurant Bar Spedition,FOOD_RESTAURANT,37.82856063875548
47.985538299999995,7.8473039999999985,dm,SHOP_CONVENIENCE,37.82856063875548
50.83002329999999,4.3444457000000005,Parvis de Saint-Gilles / Sint-Gillisvoorplein,SHOP_BICYCLE,37.82856063875548
47.638344599999996,6.8597308,Gilet Lafond,SHOP_CLOTHES,37.82856063875548
50.8765588,12.083320599999999,Markt,TOURIST_FOUNTAIN,37.841775856849004
51.7568992,14.3289551,Salon Richter & Sohn GbR,SHOP_HAIRDRESSER,37.8549864614954
50.874806799999995,12.0771966,Rossplatz-Apotheke,HEALTH_PHARMACY,37.8549864614954
47.638740399999996,6.859738799999999,HELENE BANDERIER,HEALTH_DENTIST,37.868192457522966
51.15047910000001,14.982297599999999,Freddy Fresh,FOOD_FASTFOOD,37.868192457522966
50.8766297,12.083169,Markt Gera,SHOP_MARKETPLACE,37.868192457522966
50.8759632,12.0800639,City Cafe,FOOD_CAFE,37.868192457522966
47.6384331,6.8601411999999975,Balthazar,FOOD_RESTAURANT,37.868192457522966
45.4769193,9.170817999999999,Arco della Pace,TRANSPORT_TRAMSTOP,37.868192457522966
59.9067546,10.746752800000001,Evergreen,TOURIST_ART,37.868192457522966
47.638699700000004,6.8597174,Chocolatier Barb Terrier,SHOP_DEPARTMENTSTORE,37.868192457522966
47.6344895,6.8599020999999984,École Maternelle Victor Hugo,EDUCATION_NURSERY,37.881393849751625
47.637703,6.8574227,Le Central,FOOD_BAR,37.89459064299283
51.1514109,14.9789424,Pennerecke,FOOD_BAR,37.89459064299283
49.83119420000001,18.2931812,Big Ben,TOURIST_ART,37.90778284204973
49.628107899999996,8.3573088,Museum der Stadt Worms,TOURIST_MUSEUM,37.90778284204973
50.828801299999995,4.371341,Théâtre Marni,TOURIST_THEATRE,37.90778284204973
50.8267409,4.345668,Saint-Gilles - Sint-Gillis,POI_TOWN,37.920970451717075
52.3546615,4.9319128,Tandartspraktijk Brinkman,HEALTH_DENTIST,37.920970451717075
51.14947960000001,14.983791,Apollo Theater Görlitz,TOURIST_THEATRE,37.920970451717075
52.3635997,4.9367663,Warda2,SHOP_DEPARTMENTSTORE,37.920970451717075
50.8763149,12.0828552,Standesamt Gera,AMENITY_TOWNHALL,37.920970451717075
52.4107872,16.9075555,Libra,HEALTH_PHARMACY,37.920970451717075
52.36360620000001,4.936653700000001,Cogun and Sons,SHOP_TOBACCO,37.920970451717075
51.7584862,14.337511600000001,M&W Getränkehandel,SHOP_ALCOHOL,37.93415347678132
51.7604106,14.3337958,Ristorane Amarone,FOOD_RESTAURANT,37.93415347678132
51.756904999999996,14.3291419,Perückenstudio Herrmann,SHOP_HAIRDRESSER,37.93415347678132
51.7571538,14.328250099999998,Commerzbank,MONEY_BANK,37.947331922020545
47.6385886,6.859426299999999,JLucas,SHOP_HAIRDRESSER,37.947331922020545
51.1503144,14.982196300000002,Floristen-Atelier,SHOP_FLORIST,37.947331922020545
47.418025899999996,8.5462125,La Rustica,FOOD_RESTAURANT,37.96050579220461
47.4182791,8.5465398,Pan Reisen,SHOP_DEPARTMENTSTORE,37.96050579220461
51.7568112,14.332951999999999,E.T. Modellbau Shop,SHOP_TOYS,37.96050579220461
47.1712108,8.517021699999999,Gourmetino,SHOP_BAKERY,37.96050579220461
50.8738645,12.0853727,Alte Brauerei 1880,FOOD_RESTAURANT,37.96050579220461
51.1501941,14.982424900000002,Time Out,SHOP_CLOTHES,37.96050579220461
50.8298595,4.3563679,Ibis Styles Brussels Centre Stéphanie,ACCOMMO_HOTEL,37.96050579220461
47.6385956,6.8602647,Grand Hôtel du Tonneau d'Or,ACCOMMO_HOTEL,37.97367509209504
50.828819700000004,4.371612799999999,Lecomte,SHOP_DIY,37.97367509209504
51.7578561,14.333581200000001,Effes Kebap,FOOD_FASTFOOD,37.97367509209504
51.1498119,14.9836637,Tschanter,SHOP_BAKERY,37.97367509209504
50.8266539,4.3455870999999995,Belfius,MONEY_BANK,37.986839826445156
51.150049700000004,14.982724800000002,City Boutique,SHOP_CLOTHES,37.986839826445156
51.7598285,14.333674199999999,WMF,SHOP_DEPARTMENTSTORE,38.0
51.1506806,14.9813821,vts Event,SHOP_MUSIC,38.0
47.6380562,6.8566833,Synagogue,POW_JEWISH,38.0
51.7580245,14.3336024,Burger Factory,FOOD_FASTFOOD,38.0
51.7598837,14.3336721,arko,SHOP_CONFECTIONERY,38.0
51.759961499999996,14.3336805,FRAUENZIMMER,SHOP_CLOTHES,38.0
49.6284358,8.3600455,Gardinen Zentrale,SHOP_CLOTHES,38.01315561749642
47.6374644,6.857287299999999,Armand Thierry,SHOP_CLOTHES,38.01315561749642
47.637593700000004,6.8574281,La Mîe Caline,SHOP_BAKERY,38.01315561749642
48.1667612,11.5765954,dm,SHOP_CONVENIENCE,38.01315561749642
52.363519399999994,4.935803400000001,Mesken,FOOD_RESTAURANT,38.01315561749642
47.6374443,6.8589828,Biocoop,SHOP_SUPERMARKET,38.01315561749642
51.7582233,14.3333294,Pluspunkt Apotheke,HEALTH_PHARMACY,38.03945320322047
51.1492381,14.9844769,Piela & Heidrich,SHOP_LAUNDRETTE,38.05259518088089
51.7594002,14.334175699999998,EssCoBar,FOOD_RESTAURANT,38.05259518088089
50.8289453,4.3437722999999995,La Gamba,SHOP_FISH,38.05259518088089
51.7581592,14.333332500000001,Cafehaus Methner,FOOD_CAFE,38.05259518088089
50.8732929,12.0824819,McFIT,SPORT_GYM,38.05259518088089
47.636677299999995,6.8561675000000015,Promod,SHOP_CLOTHES,38.06573262134856
47.636639,6.8560908,Yves Rocher,SHOP_HAIRDRESSER,38.06573262134856
51.149835700000004,14.9824816,Grüner Bambus,FOOD_FASTFOOD,38.078865529319536
51.759431799999994,14.3347043,Schlosskirchpassage,SHOP_SUPERMARKET,38.078865529319536
49.484776399999994,8.4446235,Othman Ibn Affan - Arabischer Kulturverein e.V,POW_ISLAMIC,38.09199390948182
49.485625,8.4435654,Dänisches Bettenlager,SHOP_DEPARTMENTSTORE,38.09199390948182
47.637687899999996,6.8592229000000025,Monoprix,SHOP_SUPERMARKET,38.1051177665153
57.7089789,11.9864645,Dr Houshang H Pasha,HEALTH_DOCTORS,38.1051177665153
57.708431000000004,11.986263000000001,Salong Vantina,SHOP_HAIRDRESSER,38.1051177665153
45.4531779,9.196955,Centro Medico Mediolanum,HEALTH_HOSPITAL,38.11823710509184
50.87437979999999,12.0864796,Irodion,FOOD_RESTAURANT,38.11823710509184
49.6278855,8.3575381,Museum der Stadt Worms,TOURIST_MUSEUM,38.1444622455213
50.87503870000001,12.0845944,"Wehrturm, Stadtmauer",TOURIST_ATTRACTION,38.1444622455213
52.3638833,4.9367936,Het Faire Oosten,SHOP_DEPARTMENTSTORE,38.157568056677825
49.6284923,8.360077,Hermes,AMENITY_POSTOFFICE,38.157568056677825
49.8310913,18.2929918,Miniuni - svět miniatur,TOURIST_ATTRACTION,38.17066936798464
51.1499217,14.982444899999999,Hospitalstraße,TRANSPORT_TRAMSTOP,38.18376618407357
52.4113566,16.908433399999996,AA Punkt Informacyjno-Kontaktowy,AMENITY_PUBLICBUILDING,38.18376618407357
47.6360717,6.8611439,Square des Anciens Combattants d'Afrique du Nord,LANDUSE_GRASS,38.18376618407357
50.829796200000004,4.3469392,Quiétude,TOURIST_ART,38.18376618407357
51.7585059,14.336424599999999,Zick Produktion,SHOP_CLOTHES,38.196858509568564
49.628579200000004,8.3610229,Trattoria Pepe e Sale,FOOD_RESTAURANT,38.209946349085605
51.756402200000004,14.3335856,Sparkasse Spree Neiße,MONEY_BANK,38.209946349085605
52.3638932,4.9365843,Nur Kabab,FOOD_RESTAURANT,38.209946349085605
59.92039010000001,10.7272532,Ni&Tyve,FOOD_RESTAURANT,38.209946349085605
47.6382208,6.8588188,Rive Gauche,SHOP_CLOTHES,38.22302970723278
49.8312436,18.293300199999997,Šikmá věž v Pise,TOURIST_ART,38.22302970723278
47.6381169,6.8588939,Le Grand Turc,SHOP_TOBACCO,38.22302970723278
48.148477,11.5428063,Theater Blaue Maus,TOURIST_THEATRE,38.22302970723278
50.8279044,4.3686987,Reservoir Shop,SHOP_CLOTHES,38.22302970723278
47.6382732,6.8588322,Free Style,SHOP_HAIRDRESSER,38.22302970723278
47.638311200000004,6.8593714000000015,Ludovic Maire,SHOP_DEPARTMENTSTORE,38.23610858861032
51.7579833,14.331923000000002,ViChin,FOOD_RESTAURANT,38.23610858861032
50.8544081,4.3386622,Moment-Point zero,TOURIST_ART,38.23610858861032
51.7592669,14.3342956,Santander Consumer Bank AG,MONEY_BANK,38.249182997810564
51.7578531,14.331997400000002,Sternenbäck,FOOD_CAFE,38.249182997810564
51.14961339999999,14.981203299999999,Bravo Italiano,FOOD_FASTFOOD,38.249182997810564
45.450547799999995,9.196137400000001,Potafiori,FOOD_CAFE,38.262252939417984
47.6384289,6.859434700000001,Bistrot des Moines,FOOD_BAR,38.275318418009284
51.7581952,14.3335865,Depot,SHOP_DEPARTMENTSTORE,38.275318418009284
47.6385479,6.859430400000001,La Société,FOOD_RESTAURANT,38.275318418009284
47.638339200000004,6.858816099999999,Havas Voyages,SHOP_DEPARTMENTSTORE,38.275318418009284
49.484387299999995,8.4433544,Müller,SHOP_SUPERMARKET,38.275318418009284
52.411799200000004,16.9084632,Street Club,SHOP_DEPARTMENTSTORE,38.28837943815329
52.3636061,4.936562599999999,Volendammer Vishandel,SHOP_FISH,38.301436004411116
50.0658801,14.439085,Barvy-Laky u Botiče,SHOP_DEPARTMENTSTORE,38.301436004411116
47.172078799999994,8.5179584,The Butcher,FOOD_RESTAURANT,38.301436004411116
52.3638863,4.9360235,PC Professional,SHOP_COMPUTER,38.301436004411116
52.3653191,4.934878299999999,Timorplein,TOURIST_FOUNTAIN,38.301436004411116
48.57896160000001,7.7673966,Faculté de Droit,EDUCATION_UNIVERSITY,38.31448812133603
50.876832799999995,12.0836706,Österreich am Markt,SHOP_CONVENIENCE,38.31448812133603
51.7580856,14.331552499999999,Only,SHOP_CLOTHES,38.31448812133603
52.363904299999994,4.9356801,Kruidvat,SHOP_CONVENIENCE,38.31448812133603
47.4751476,8.304668300000001,Röntgeninstitut Baden,HEALTH_HOSPITAL,38.31448812133603
52.3636013,4.93645,Kapadokya,SHOP_BAKERY,38.31448812133603
47.3623189,8.5356902,Volière,TOURIST_ATTRACTION,38.3275357934736
47.2560857,11.3989765,Rote Laterne,FOOD_BAR,38.3275357934736
49.4843915,8.445789900000001,EUROPA HOTEL,ACCOMMO_HOTEL,38.340579025361635
50.8265688,4.3451198,Market Latino y Africano,SHOP_CONVENIENCE,38.340579025361635
50.875898,12.079458099999998,Heinrichstraße,TRANSPORT_TRAMSTOP,38.340579025361635
51.7578745,14.332327599999998,Stadtpromenade Bahnsteig A,TRANSPORT_TRAMSTOP,38.340579025361635
51.7603792,14.3333753,Torino,SHOP_CLOTHES,38.340579025361635
47.6363199,6.856067200000001,Le Piano Bar,TOURIST_NIGHTCLUB,38.35361782153021
47.637813200000004,6.8574321,Corbis Shoes,SHOP_SHOES,38.36665218650175
50.8762287,12.0829519,Süßer Winkel,FOOD_PUB,38.37968212479098
47.63719879999999,6.856469199999999,MARC BRUNET,HEALTH_DENTIST,38.37968212479098
49.4849357,8.4437764,Rathausplatz,TOURIST_FOUNTAIN,38.37968212479098
47.6385164,6.8573607999999995,Pharmacie Boffy,HEALTH_PHARMACY,38.39270764090493
47.6357199,6.8557374000000015,Speed Rabbit Pizza,FOOD_RESTAURANT,38.39270764090493
47.6384305,6.857437599999999,Belfort Théâtre,AMENITY_POSTOFFICE,38.39270764090493
50.8755889,12.0833899,TannCAPITAL Private Value AG,MONEY_BANK,38.39270764090493
47.6376092,6.8596363,La Savoureuse,WATER_WEIR,38.39270764090493
47.6371019,6.8565129,Flunch,FOOD_RESTAURANT,38.39270764090493
49.628673799999994,8.3612482,Wein- und Bierschänke Das Flammkuchenhaus,FOOD_RESTAURANT,38.40572873934304
48.8951201,2.3923772,La Péniche cinéma,TOURIST_ART,38.40572873934304
50.875587599999996,12.0839872,Kornmarkt,TOURIST_FOUNTAIN,38.40572873934304
52.3638846,4.9361415,Asgul Kledingreparatie / stomerij / gordijnen,SHOP_LAUNDRETTE,38.41874542459709
50.87620560000001,12.083198199999998,Cafe Kanitz,FOOD_CAFE,38.41874542459709
51.7581251,14.331776300000001,Tom Tailor,SHOP_CLOTHES,38.43175770115128
50.879041,12.0767968,"Pflegezentrum ""Am Hofwiesenpark""",AMENITY_PUBLICBUILDING,38.43175770115128
50.827733200000004,4.368312599999999,Dautzenberg,TRANSPORT_TRAMSTOP,38.43175770115128
47.638015100000004,6.85975,Finnegans,FOOD_PUB,38.44476557348217
51.7599988,14.333374599999999,Hunkemöller,SHOP_CLOTHES,38.44476557348217
51.758776899999994,14.333314800000002,Krauts Geschenkboutique,SHOP_GIFT,38.44476557348217
51.7599135,14.3333775,Endlos,SHOP_JEWELRY,38.44476557348217
50.877678499999995,12.085837800000002,Museum für Naturkunde,TOURIST_MUSEUM,38.44476557348217
50.8771354,12.084517300000002,Steko Spielhaus Gera,SHOP_TOYS,38.44476557348217
51.75824520000001,14.322490599999998,Mangold,FOOD_RESTAURANT,38.45776904605882
47.6380475,6.8598006,Cosmo Pharmacie,HEALTH_PHARMACY,38.45776904605882
51.758844,14.333307999999999,#SC No. 1 - Tanzbar,TOURIST_NIGHTCLUB,38.45776904605882
50.923693,11.591104099999999,Neuer Jenaplan,LANDUSE_GRASS,38.45776904605882
50.8257708,4.3467245000000005,Café La Pompe,FOOD_CAFE,38.47076812334269
47.636577,6.8559837,Forum Espace Culture,SHOP_BOOK,38.47076812334269
49.4853304,8.4442036,Saturn,SHOP_HIFI,38.48376280978771
47.63702979999999,6.85637,Pimkie,SHOP_CLOTHES,38.48376280978771
51.7591748,14.333791199999999,Synagoge,POW_JEWISH,38.49675310984031
50.8275911,4.3670795,Dautzenberg,TRANSPORT_TRAMSTOP,38.49675310984031
51.759436799999996,14.333338699999999,taste of india,FOOD_RESTAURANT,38.49675310984031
49.4851187,8.4434655,Rathaus,TRANSPORT_TRAMSTOP,38.49675310984031
49.4853917,8.443419300000002,McDonald's,FOOD_FASTFOOD,38.5097390279394
50.827338,4.3450907,Tipi Bookshop,SHOP_BOOK,38.5097390279394
52.3638978,4.9367047,Mustafa's Koffie- en Theehuis,FOOD_CAFE,38.5097390279394
51.758460799999995,14.337249499999999,Netto Marken-Discount,SHOP_SUPERMARKET,38.522720568516455
50.8767171,12.0838042,"Seniorenresidenz ""Marktkarree""",AMENITY_PUBLICBUILDING,38.522720568516455
51.76078920000001,14.332533600000001,Alibaba Döner,FOOD_FASTFOOD,38.522720568516455
50.8770286,12.0848215,Queens,FOOD_PUB,38.522720568516455
50.8357571,4.397221099999999,Jardin des Arts - Kunsttuin,LANDUSE_GRASS,38.535697735995385
51.75958410000001,14.333623000000001,Conditorei & Cafe Lauterbach,FOOD_CAFE,38.535697735995385
50.87747750000001,12.084995900000001,Kabarett Lachgeschäft,TOURIST_THEATRE,38.535697735995385
50.8758132,12.0783114,Mayer´s Markenschuhe,SHOP_SHOES,38.535697735995385
49.484702899999995,8.4466789,Zentrum für Radiologische Diagnostik,HEALTH_HOSPITAL,38.535697735995385
50.8278049,4.3683468,Yen,FOOD_RESTAURANT,38.535697735995385
50.8292166,4.348079599999998,Pierre Paulus,AMENITY_PLAYGROUND,38.548670534792755
47.3885695,8.539287,Mama's Krone Beck,FOOD_RESTAURANT,38.548670534792755
47.38662720000001,8.5454219,ETH SEW,EDUCATION_UNIVERSITY,38.548670534792755
