lat,lon,Name,type,comparison
47.3869001,8.517045300000001,Maag MusicHall,TOURIST_THEATRE,2.8284271247461903
47.3863719,8.516976099999999,LY'S Asia Take-Away Maag-Areal,FOOD_FASTFOOD,3.0
47.3865335,8.516322500000001,Billettkasse der Tonhalle-Gesellschaft Zürich,SHOP_KIOSK,3.1622776601683795
47.3865664,8.5165256,Tonhalle Maag,TOURIST_THEATRE,3.8729833462074175
47.386283899999995,8.5174558,Hotel Rivington & Sons,FOOD_BAR,4.123105625617661
47.3863155,8.516726400000001,LY'S Asia Maag-Areal,FOOD_RESTAURANT,4.242640687119285
47.3860207,8.5171884,Clouds,FOOD_BAR,4.58257569495584
47.3859984,8.5174066,ZKB Prime Tower,MONEY_BANK,5.0990195135927845
47.3858089,8.516573900000001,Coop Maagplatz,SHOP_SUPERMARKET,5.744562646538029
47.3863467,8.5176851,Coop Pronto Prime Tower,SHOP_CONVENIENCE,6.6332495807108
47.385076,8.516863699999998,Bahnhof Hardbrücke,TRANSPORT_TRAMSTOP,6.92820323027551
47.38589810000001,8.517719999999999,Marronistand,FOOD_FASTFOOD,6.92820323027551
47.3854706,8.5174484,Hitzberger Hardbrücke,FOOD_FASTFOOD,7.3484692283495345
47.3854018,8.5183169,Rosso,FOOD_RESTAURANT,7.549834435270751
47.38515870000001,8.5186586,Heilsarmee Brockenhaus,SHOP_CLOTHES,7.681145747868607
47.3859148,8.5181705,Helsinki,TOURIST_NIGHTCLUB,8.06225774829855
47.3859531,8.5182895,Zum Gaul,FOOD_RESTAURANT,8.306623862918075
47.385689899999996,8.518467999999999,Bogen 33,SHOP_CLOTHES,8.660254037844387
47.3856858,8.519441800000001,Freitag Store,SHOP_CLOTHES,11.31370849898476
47.3856831,8.5193845,Freitag Turm,POI_TOWERLOOKOUT,11.31370849898476
47.3856511,8.5196211,ViCafe Gerold,FOOD_CAFE,11.61895003862225
47.3856093,8.5196778,Soeder*,SHOP_DEPARTMENTSTORE,11.6619037896906
47.385560399999996,8.519304199999999,Making Things II,SHOP_CLOTHES,12.247448713915892
47.3855079,8.519273,Print Matters,SHOP_CLOTHES,12.247448713915892
47.38549860000001,8.519285400000001,Gerolds Markt,SHOP_MARKETPLACE,12.247448713915892
47.385503899999996,8.5199443,Supermarket,TOURIST_NIGHTCLUB,12.288205727444508
47.3881885,8.514269699999998,Renaissance Tower Hotel,ACCOMMO_HOTEL,12.961481396815719
47.388086799999996,8.5144267,Lucid,FOOD_BAR,13.19090595827292
47.38532120000001,8.5210954,Velonauta,SHOP_BICYCLE,13.341664064126336
47.3889894,8.5154773,Technopark,TRANSPORT_TRAMSTOP,13.341664064126336
47.3889729,8.516186,Ibis Budget Zürich City West,ACCOMMO_HOTEL,13.45362404707371
47.38916079999999,8.516630900000001,novotelcafe,FOOD_RESTAURANT,13.490737563232043
47.38912120000001,8.5166058,novotelcafe,FOOD_BAR,13.527749258468685
47.3891361,8.5167438,Novotel Zürich City West,ACCOMMO_HOTEL,13.711309200802088
47.3851341,8.5206355,Yonex Badmington Halle,SPORT_TENNIS,14.0
47.38827979999999,8.514258,Divid,FOOD_BAR,14.491376746189436
47.389159,8.515056199999998,Technopark,TRANSPORT_TRAMSTOP,14.7648230602334
49.589099,17.254266100000002,Tržnice,TRANSPORT_TRAMSTOP,15.684387141358124
52.358045399999995,4.9102842,Coffeecompany,FOOD_CAFE,15.748015748023622
49.589326799999995,17.253690399999996,Tržnice,TRANSPORT_TRAMSTOP,16.06237840420901
49.5892146,17.2533728,Poliklinika,HEALTH_HOSPITAL,16.06237840420901
47.4771425,-0.550038,Université d'Angers - Présidence,EDUCATION_UNIVERSITY,16.248076809271918
52.359038,4.9087323,Kohnstammhuis,EDUCATION_UNIVERSITY,16.278820596099706
52.3597128,4.8582555,Buurthuis Cremerplein,TOURIST_THEATRE,16.278820596099706
52.359156899999995,4.909942,Wibauthuis,EDUCATION_UNIVERSITY,16.583123951777
52.3587078,4.9079019,Studio HvA,EDUCATION_UNIVERSITY,16.703293088490067
52.3588322,4.9098788,Spar University,SHOP_SUPERMARKET,16.73320053068151
52.359134999999995,4.9099529,Wibauthuis,EDUCATION_SCHOOL,16.73320053068151
52.359122,4.909088400000001,Amstelcampus,EDUCATION_UNIVERSITY,16.792855623746664
50.8269473,4.363918900000002,Bailli - Baljuw,TRANSPORT_TRAMSTOP,17.029386365926403
52.3616409,4.8564147,Autobedrijf Crijnssen,SHOP_CARREPAIR,17.175564037317667
48.231189,16.359580599999994,Fachbereichsbibliothek Erdwissenschaften und Meteorologie,AMENITY_LIBRARY,17.291616465790582
45.489080200000004,9.167521699999998,The Saints and the Scholars,FOOD_PUB,17.291616465790582
52.35909,4.8598914,Papa John's,FOOD_FASTFOOD,17.435595774162696
52.359157399999994,4.8601776,Lady Wax,SHOP_HAIRDRESSER,17.435595774162696
50.7143009,12.495112599999999,"Humboldtschule, Oberschule",EDUCATION_SCHOOL,17.435595774162696
52.3592723,4.8600962,WarungRahayu,FOOD_RESTAURANT,17.435595774162696
48.2313722,16.359494,Fachbereichsbibliothek Pharmazie und Ernährungswissenschaften,AMENITY_LIBRARY,17.464249196572982
52.3593185,4.8606612,Neetu Da Dhaba,FOOD_RESTAURANT,17.606816861659013
55.7020176,13.2020113,Östra kyrkogården,BARRIER_BLOCKS,17.663521732655695
52.3588205,4.8602784,Toasty!,FOOD_CAFE,17.691806012954128
50.827408399999996,4.3642985,natural Caffe,FOOD_CAFE,17.720045146669353
52.3590399,4.860358799999998,Rhijnvis Feithstraat,TRANSPORT_TRAMSTOP,17.88854381999832
50.826722,4.3639209999999995,Harry Wilson,SHOP_CLOTHES,18.0
50.826791799999995,4.363842900000002,Begentlemen,SHOP_CLOTHES,18.027756377319946
52.3595568,4.8598924000000014,A.S.K.,SHOP_TOBACCO,18.027756377319946
52.3591999,4.8647759000000015,Kinderkookkafe,FOOD_CAFE,18.110770276274835
50.1016863,14.4222954,Restaurace Milada,FOOD_RESTAURANT,18.13835714721705
51.34444179999999,12.3647397,Steakhouse Piccolo,FOOD_RESTAURANT,18.248287590894662
57.69080329999999,11.9604433,Annedalsgården,TOURIST_THEATRE,18.303005217723125
48.1994019,16.381093099999998,Jos. Zahn&Co,SHOP_DEPARTMENTSTORE,18.35755975068582
52.3590989,4.8613642,Café Goud West,FOOD_PUB,18.439088914585774
62.6038937,29.768826699999998,Ravintola Kreeta,FOOD_RESTAURANT,18.466185312619384
50.82651,4.3641413,Careli,SHOP_CLOTHES,18.520259177452136
50.8266251,4.3639977,ING,MONEY_BANK,18.547236990991408
52.35907260000001,4.8612663000000005,Fondue & Fondue,FOOD_RESTAURANT,18.547236990991408
49.590326399999995,17.2492788,Puškařův šenk,FOOD_RESTAURANT,18.57417562100671
52.35901550000001,4.8609679,Mister Chi Scooters,SHOP_MOTORCYCLE,18.681541692269406
52.359049799999994,4.8611695,Craft & Draft,FOOD_PUB,18.708286933869708
52.35907320000001,4.9167422,Beukenweg,TRANSPORT_TRAMSTOP,18.76166303929372
52.3597068,4.8637435,Run2Day,SHOP_MOTORCYCLE,18.76166303929372
50.8262901,4.3635402,Le Châtelain Boutique Hotel,ACCOMMO_HOTEL,18.788294228055932
50.82768400000001,4.3649269,Joly Frais,SHOP_CONVENIENCE,18.841443681416774
48.1994626,16.380923000000006,Christoph Leichtfried,HEALTH_VETERINARY,18.841443681416774
54.5952546,-5.9236797999999995,St George's Market / Cromac Square,SHOP_BICYCLE,18.867962264113206
52.35865220000001,4.9178842000000005,Nationaal monument Slavernijverleden,TOURIST_MEMORIAL,18.867962264113206
50.096716799999996,14.4318909,Nágl,SHOP_DIY,18.920887928424502
49.5902138,17.2499212,Církevní gymnázium,EDUCATION_COLLEGE,18.920887928424502
48.198227,16.380974900000002,Salesianer-Apotheke,HEALTH_PHARMACY,18.920887928424502
46.0557116,14.504105599999999,K4,TOURIST_NIGHTCLUB,18.947295321496416
52.3838777,4.884938099999999,Van Leek Electroworld,SHOP_HIFI,18.973665961010283
54.59727120000001,-5.9211082,Waterfront,SHOP_BICYCLE,19.0
50.09670300000001,14.432387,Jan Bouchal,TOURIST_MEMORIAL,19.05255888325765
48.5746619,7.752277,Halte nautique provisoire de Strasbourg,TRANSPORT_MARINA,19.078784028338912
59.9275098,10.7197696,Subway,FOOD_FASTFOOD,19.078784028338912
59.927472200000004,10.719830400000001,Leisure zone,SHOP_DIY,19.078784028338912
47.476881,-0.55053,Bureau de Poste Angers Université,AMENITY_POSTOFFICE,19.104973174542803
47.568675899999995,7.596575099999999,Sevi vel,SHOP_SUPERMARKET,19.104973174542803
48.5826392,7.7641272,Université,TRANSPORT_TRAMSTOP,19.104973174542803
50.83028270000001,4.3612724,Carrefour Express,SHOP_CONVENIENCE,19.183326093250876
52.1021713,4.274496900000001,Route 66,FOOD_FASTFOOD,19.209372712298546
45.64748370000001,13.783292000000001,La bottega del caffè,FOOD_CAFE,19.235384061671343
52.1057276,4.2743015,YMCA,TOURIST_THEATRE,19.313207915827967
45.4531125,9.163648599999998,BASE Milano,TOURIST_ART,19.33907960581372
59.92762,10.719591699999999,Danske bank,MONEY_BANK,19.442222095223578
46.7621336,7.6263656000000015,Grabengut,SPORT_STADIUM,19.467922333931785
52.378701299999996,9.7495819,Siegmund Edelstein,TOURIST_MEMORIAL,19.467922333931785
57.69998520000001,11.990621800000001,Valhalla,SPORT_SWIMMING,19.467922333931785
59.9272985,10.7159439,Le Rustique,FOOD_CAFE,19.467922333931785
52.3810671,4.879161,Nassaukade,TRANSPORT_TRAMSTOP,19.493588689617926
52.105568299999995,4.2742884000000005,Baan Chokdee,FOOD_RESTAURANT,19.519221295943137
52.37387329999999,4.8747753,Dr. Rijk Kramer School,EDUCATION_SCHOOL,19.519221295943137
48.5828735,7.7637136,Université,TRANSPORT_TRAMSTOP,19.595917942265423
59.92884599999999,10.7176645,Lille Vinkel Sko,SHOP_SHOES,19.621416870348586
52.3787028,9.7495869,Frieda Edelstein,TOURIST_MEMORIAL,19.6468827043885
52.3740546,4.8747940000000005,Sameplace,FOOD_BAR,19.672315572906
52.3739527,4.8748051,Foodism,FOOD_RESTAURANT,19.672315572906
46.05580910000001,14.5040089,Foodie,FOOD_RESTAURANT,19.697715603592208
43.6056016,1.4590996999999999,O Cofador,SHOP_HAIRDRESSER,19.723082923316017
52.3527591,4.8828309,Roelof Hartplein,TRANSPORT_TRAMSTOP,19.748417658131498
50.82632260000001,4.364258900000001,BoConcept,SHOP_DEPARTMENTSTORE,19.748417658131498
52.374146100000004,4.87442,Odin,SHOP_SUPERMARKET,19.77371993328519
43.6056144,1.459176,Maya Coiffure,SHOP_HAIRDRESSER,19.77371993328519
52.1055427,4.2745361,Sickboards,SHOP_MOTORCYCLE,19.798989873223327
47.391803,8.5181465,Puls 5,SHOP_BICYCLE,19.824227601599013
44.852807,-0.5675849000000001,Chartrons,TRANSPORT_TRAMSTOP,19.849433241279208
44.8528256,-0.5676180999999999,Chartrons,TRANSPORT_TRAMSTOP,19.849433241279208
59.92918710000001,10.7152936,Vitusapotek Majorstuen,HEALTH_PHARMACY,19.87460691435179
59.9291529,10.7153089,Majorstuen,POI_SUBURB,19.87460691435179
59.9277346,10.718587800000002,Gunnar Øye,SHOP_CLOTHES,19.924858845171283
59.92910179999999,10.7150428,Krogh Optikk,SHOP_DEPARTMENTSTORE,19.949937343260004
50.827681899999995,4.3653862,L'Escale Au Vietnam,FOOD_RESTAURANT,19.949937343260004
53.2212749,6.577807400000001,Milo,SHOP_KIOSK,19.974984355438174
47.5673435,7.5898040999999985,FETAG,SHOP_DEPARTMENTSTORE,20.0
48.199086799999996,16.3808861,Heinisz,SHOP_LAUNDRETTE,20.0
52.3528092,4.8832191,Roelof Hartplein,TOURIST_FOUNTAIN,20.02498439450079
52.1045811,4.274709,Eben Haëzerkerk,POW_CHRISTIAN,20.02498439450079
50.099628700000004,14.438525400000001,Vltavská,TRANSPORT_SUBWAY,20.049937655763426
59.92763299999999,10.7153165,Nambo restaurant & bar,FOOD_RESTAURANT,20.07485989988473
59.929176299999995,10.714829,Kverneriet,FOOD_RESTAURANT,20.07485989988473
52.352575,4.8828368,Uipkes Houten Vloeren,SHOP_DEPARTMENTSTORE,20.07485989988473
52.3837008,4.8851707000000015,Galerie Jade,SHOP_DEPARTMENTSTORE,20.07485989988473
45.45223920000001,9.202055999999999,Porta Romana,TOURIST_CASTLE,20.09975124224178
59.9279113,10.7151639,Gandhi,FOOD_RESTAURANT,20.12461179749811
47.5670391,7.5900747000000015,Gemeinschaft Evangelisch Taufgesinnter,POW_CHRISTIAN,20.149441679609886
52.1048529,4.2751306,Scootercentrum Den Haag B.V.,SHOP_MOTORCYCLE,20.149441679609886
52.10484570000001,4.2751696,Apotheek Den Heijer,HEALTH_PHARMACY,20.149441679609886
52.384198,4.88345,Kroon,SHOP_CARREPAIR,20.19900987672416
52.105252899999996,4.2746612,Energie Voor Altijd,SHOP_HIFI,20.19900987672416
51.3339206,12.3683172,US-Amerikanisches Generalkonsulat,POI_EMBASSY,20.223748416156685
50.07126470000001,14.4513582,Ruská,TRANSPORT_TRAMSTOP,20.223748416156685
52.3837471,4.885083,De Dijk,FOOD_FASTFOOD,20.248456731316587
52.3524593,4.8831169999999995,Monique Gottmer,SHOP_HAIRDRESSER,20.248456731316587
59.92755920000001,10.7154504,Lille Chef,FOOD_PUB,20.248456731316587
52.3524322,4.8831903,Tandartsenpraktijk Roelof Hart,HEALTH_DENTIST,20.297783130184442
52.383601299999995,4.8853483,Spirituele Akademie,EDUCATION_SCHOOL,20.32240143290157
50.09960570000001,14.4387704,Vltava,TOURIST_ART,20.32240143290157
50.847418,4.3708565,Chapelle Sainte-Julienne,POW_CHRISTIAN,20.346989949375807
50.0995365,14.4370318,Medulka,SHOP_DEPARTMENTSTORE,20.346989949375807
52.384363,4.883198,The burrito maker,FOOD_RESTAURANT,20.37154878746336
52.370357899999995,4.8707483,Freewheel,SHOP_BICYCLE,20.37154878746336
50.071656899999994,14.4513111,Retro Cukrárna,FOOD_CAFE,20.396078054371138
50.8277341,4.3663445,Mises en Bouche,FOOD_BAR,20.396078054371138
52.3836334,4.885289599999999,Sam Sam,SHOP_CLOTHES,20.396078054371138
44.85315739999999,-0.5674901,Jim et Compagnie,FOOD_FASTFOOD,20.42057785666214
50.1000777,14.4385553,Vltavská,TRANSPORT_SUBWAY,20.445048300260872
52.105062,4.2748957,The Ink Roses,SHOP_DEPARTMENTSTORE,20.46948949045872
52.105161100000004,4.274797599999999,Het Hofje Van Noman,FOOD_RESTAURANT,20.46948949045872
50.0717739,14.451187699999998,Ambrózie,FOOD_RESTAURANT,20.46948949045872
52.3701563,4.8706877,Pannenkoekenhuis Candela,FOOD_CAFE,20.46948949045872
50.0716902,14.451111,Ruská,TRANSPORT_TRAMSTOP,20.46948949045872
50.0718445,14.451209200000001,Ambrózie,TOURIST_NIGHTCLUB,20.46948949045872
52.1051086,4.2748506,Carnaby,SHOP_TOYS,20.46948949045872
52.104915500000004,4.2753120000000004,HEMA,SHOP_SUPERMARKET,20.46948949045872
52.1050446,4.2751382000000016,Café de Bayonne,FOOD_RESTAURANT,20.46948949045872
49.4562627,11.0668963,Klinik Hallerwiese,HEALTH_HOSPITAL,20.46948949045872
52.3524917,4.8830301,Restaurant Elements ROC Van Amsterdam,FOOD_RESTAURANT,20.518284528683196
50.0992746,14.438417499999998,Vltava,TOURIST_ART,20.518284528683196
50.099193400000004,14.4381247,Vltavská,TRANSPORT_TRAMSTOP,20.518284528683196
52.3706794,4.8704083,De Clercqstraat,TRANSPORT_TRAMSTOP,20.54263858417414
50.8456825,4.3681545999999996,Arts-Loi - Kunst-Wet,TRANSPORT_SUBWAY,20.54263858417414
50.825739399999996,4.3648819,Embajada de Argentina,POI_EMBASSY,20.591260281974
47.98975460000001,7.8569183,Dreizack Music,SHOP_MUSIC,20.615528128088304
45.4526203,9.2012247,Buffetti Soluzioni Ufficio Srl,SHOP_COPYSHOP,20.639767440550294
52.1046731,4.2753596,Meesterbakker Roodenrijs,SHOP_BAKERY,20.663978319771825
50.071276399999995,14.451622199999996,Jiná krajina,FOOD_RESTAURANT,20.663978319771825
50.8457119,4.368793599999999,Arts-Loi - Kunst-Wet,SHOP_BICYCLE,20.736441353327717
52.3706571,4.8706443,Etos,SHOP_CONVENIENCE,20.76053949202669
52.37048060000001,4.8706383,Xenos,SHOP_DEPARTMENTSTORE,20.76053949202669
50.8246203,4.3539859000000005,Brico,SHOP_DIY,20.808652046684813
47.568546999999995,7.590850200000001,Bläsimarkt,SHOP_SUPERMARKET,20.808652046684813
45.452443,9.2015216,Unicredit,MONEY_BANK,20.808652046684813
46.762260999999995,7.6271368000000015,BewegungPlus Begegnungszentrum,POW_CHRISTIAN,20.83266665599966
45.4557091,9.2032569,Silvestrini,SHOP_BICYCLE,20.83266665599966
55.681266,12.5609367,Katolsk Apostolisk Kirke,POW_CHRISTIAN,20.83266665599966
45.4525875,9.201751,Flash Bank,MONEY_BANK,20.85665361461421
51.953100899999995,7.642611299999999,Penny,SHOP_SUPERMARKET,20.85665361461421
50.825339899999996,4.3534505999999995,La Belladone,FOOD_BAR,20.8806130178211
45.455039,9.2042319,Viale Monte Nero - Via Pier Lombardo,TRANSPORT_TRAMSTOP,20.904544960366877
49.19228579999999,16.594268,Penzion na Starém Brně,ACCOMMO_HOTEL,20.928449536456352
47.568708799999996,7.5903858999999985,Bläsiring,TRANSPORT_TRAMSTOP,20.97617696340303
50.824771399999996,4.3524089,Cafe Santa Marta,FOOD_CAFE,20.97617696340303
47.56851760000001,7.5904465,Bläsiring,TRANSPORT_TRAMSTOP,20.97617696340303
48.1996669,16.379617800000002,Arco,FOOD_RESTAURANT,20.97617696340303
50.0986409,14.437321300000002,Vltavská,TRANSPORT_TRAMSTOP,21.0
47.5650049,7.5981981,Gloggehus,SHOP_DEPARTMENTSTORE,21.0
51.2090277,4.4326252,Plantin en Moretus,SHOP_BICYCLE,21.0
51.047448100000004,3.7181982000000002,Oefenschool Wispelberg,EDUCATION_SCHOOL,21.047565179849187
47.568703799999994,7.591119,GGG Stadtbibliothek Bläsi,AMENITY_LIBRARY,21.07130750570548
52.3481204,4.8909926,Pizzeria San Marco,FOOD_RESTAURANT,21.095023109728988
50.0990261,14.437474,Vltavská,TRANSPORT_TRAMSTOP,21.095023109728988
59.9283652,10.7120852,Marie Gate Park,LANDUSE_GRASS,21.142374511865974
47.56869920000001,7.5902413,HIOB Brockenstube,SHOP_DEPARTMENTSTORE,21.142374511865974
51.34282260000001,12.363820599999999,Weine und Feines,SHOP_DEPARTMENTSTORE,21.142374511865974
44.84986170000001,-0.5694869,Ibaïa Café,FOOD_RESTAURANT,21.166010488516726
50.8458921,4.3689679,Arts-Loi - Kunst-Wet,TRANSPORT_SUBWAY,21.18962010041709
46.9501719,7.4289372,Soteria Bern,AMENITY_PUBLICBUILDING,21.18962010041709
52.383568200000006,4.8857599,Sane,FOOD_CAFE,21.213203435596427
45.4558174,9.2043914,AL venticinque,FOOD_RESTAURANT,21.213203435596427
44.8498691,-0.5708791999999999,Esplanade des Chartrons,TOURIST_FOUNTAIN,21.213203435596427
55.6701414,12.5862015,Cafe Rabes Have,FOOD_CAFE,21.236760581595306
52.10600720000001,4.2792389,Café de Jutter,FOOD_CAFE,21.236760581595306
52.105934399999995,4.279229,Supermarkt FAME,SHOP_CONVENIENCE,21.236760581595306
52.3550748,4.90261,Sranant Food,FOOD_RESTAURANT,21.2602916254693
51.9530681,7.6422605,Gator's Pizza,FOOD_FASTFOOD,21.283796653792766
52.104715399999996,4.275561799999998,Vast Laag,SHOP_CONVENIENCE,21.283796653792766
43.5993141,3.8960522000000006,Place Georges Frêche,TOURIST_FOUNTAIN,21.283796653792766
51.9529449,7.6417229,Kittys Trinksalon,FOOD_BAR,21.283796653792766
51.3430318,12.3638181,Bergmann Friseure,SHOP_HAIRDRESSER,21.283796653792766
52.1059737,4.279444,"Restaurant ""De Dis""",FOOD_RESTAURANT,21.30727575266252
52.105891799999995,4.2794336,Peter Pan Kinderboeken,AMENITY_POSTOFFICE,21.30727575266252
50.0933839,14.4397851,CzecHouse Grill & Rotisserie,FOOD_RESTAURANT,21.330729007701546
47.64126210000001,6.8579214,Lycée général et technologique privé Sainte-Marie,EDUCATION_SCHOOL,21.37755832643195
50.8292729,4.35802,Made in Louise,ACCOMMO_HOTEL,21.37755832643195
45.4838377,9.1776654,Piazzale Cimitero Monumentale - Via Bramante,TRANSPORT_TRAMSTOP,21.40093455903269
44.8534342,-0.5671393,Cool Bike,SHOP_BICYCLE,21.42428528562855
50.0936038,14.439482,Cloud 9 Sky Bar & Lounge,FOOD_BAR,21.42428528562855
44.8500309,-0.5724427,Juliena,FOOD_CAFE,21.42428528562855
44.8533914,-0.5671903,Yumi,FOOD_RESTAURANT,21.42428528562855
52.3708296,4.8699205999999995,Bilderdijkstraat,TRANSPORT_TRAMSTOP,21.42428528562855
52.352587400000004,4.8825724,Bibliotheek Roelof Hartplein,AMENITY_LIBRARY,21.470910553583888
52.445349300000004,13.5743231,Rathaus Köpenick,TRANSPORT_TRAMSTOP,21.494185260204677
51.9531223,7.6429493000000015,Der gute Bäcker Krimphove,SHOP_BAKERY,21.494185260204677
45.4529186,9.2016265,Porta Romana,POI_SUBURB,21.517434791350013
50.8456302,4.3691301,Carrefour Express,SHOP_SUPERMARKET,21.517434791350013
52.3711828,4.8705358,De Clercqstraat,TRANSPORT_TRAMSTOP,21.54065922853801
47.2107565,-1.5452488000000002,Le Wilton Pub,FOOD_PUB,21.563858652847824
56.9613205,24.1213027,Rīgas 49. vidusskola,EDUCATION_SCHOOL,21.563858652847824
61.0593346,28.19245260000001,Old Cock,FOOD_BAR,21.563858652847824
50.071062899999994,14.451796599999998,Žabka,SHOP_CONVENIENCE,21.587033144922906
51.9533559,7.6417163,Hafenkiosk,SHOP_KIOSK,21.587033144922906
51.9533499,7.6414461,fok,FOOD_RESTAURANT,21.587033144922906
52.1058439,4.2795394,PostNL,AMENITY_POSTOFFICE,21.587033144922906
45.4564747,9.1986699,Nobilis Cafè,FOOD_CAFE,21.587033144922906
52.37004500000001,4.8706729000000015,Meatless district,FOOD_RESTAURANT,21.61018278497431
44.8498015,-0.5702353,CAPC,SHOP_BICYCLE,21.61018278497431
51.214096399999995,4.3939494,Peter de Grote,TOURIST_MONUMENT,21.61018278497431
51.5190675,-0.1883771,Royal Oak Platform 1,TRANSPORT_SUBWAY,21.61018278497431
44.8497602,-0.5712623,Mercure,ACCOMMO_HOTEL,21.61018278497431
52.104637,4.2756403,Arawann Thaifood To Go,FOOD_RESTAURANT,21.633307652783934
51.2109672,4.401218599999999,Mirlo's,FOOD_CAFE,21.633307652783934
51.519087400000004,-0.1880862,Royal Oak,TRANSPORT_SUBWAY,21.633307652783934
52.1045898,4.2757003,Sphinx,FOOD_RESTAURANT,21.633307652783934
52.1036713,4.2764351,Kruidvat,SHOP_CONVENIENCE,21.633307652783934
50.8241986,4.3680918,Izakaya,FOOD_RESTAURANT,21.656407827707714
51.4894656,-0.17793299999999998,St Yeghiche Armenian Church,POW_CHRISTIAN,21.656407827707714
52.371213299999994,4.8701978,Monks Coffee Roasters,FOOD_CAFE,21.656407827707714
50.09334000000001,14.4396723,Hilton Prague,ACCOMMO_HOTEL,21.656407827707714
51.0445815,3.7192035000000003,Muziekcentrum De Bijloke,TOURIST_ART,21.679483388678797
50.830694799999996,4.3540471,Chapelle Saint-Bernard - Sint-Bernarduskapel,POW_CHRISTIAN,21.679483388678797
51.7594071,-1.2680691000000002,The Harcourt Arms,FOOD_PUB,21.679483388678797
50.8242475,4.3681502,Bébé Bonheur,EDUCATION_NURSERY,21.72556098240043
47.564612200000006,7.5981220999999985,Hotel Alexander,ACCOMMO_HOTEL,21.72556098240043
47.5674348,7.5903845999999975,Bläsi Apotheke,HEALTH_PHARMACY,21.74856317093155
47.5675379,7.5903738,Eintracht,FOOD_RESTAURANT,21.771541057077236
53.53983100000001,9.993084800000002,COAST by east,FOOD_RESTAURANT,21.771541057077236
52.994626000000004,6.560403999999999,CoolCat,SHOP_CLOTHES,21.794494717703373
52.3552344,4.901962200000002,Warung Mini,FOOD_RESTAURANT,21.817424229271428
55.6824995,12.549838099999999,Quick Vask,SHOP_LAUNDRETTE,21.86321110907545
51.745016899999996,-1.2402619,Tsangs Kitchen,FOOD_FASTFOOD,21.86321110907545
55.68242610000001,12.5497754,Me and Jake,SHOP_CLOTHES,21.86321110907545
47.567713,7.5901833,Ticino,FOOD_CAFE,21.88606862823929
51.9530546,7.6413732,Watusi Bar,FOOD_BAR,21.88606862823929
51.9530325,7.6409718999999985,Hansa-Grill,FOOD_FASTFOOD,21.88606862823929
59.9269686,10.7143563,Ponthip Garden,SHOP_DEPARTMENTSTORE,21.90890230020664
50.8445605,4.3669142,U.S. Embassy,POI_EMBASSY,21.93171219946131
49.198991299999996,8.1183118,Raddegaggl-Stubb,FOOD_RESTAURANT,21.93171219946131
59.927342700000004,10.712930900000002,Frogner stadion,TRANSPORT_TRAMSTOP,21.93171219946131
51.4316208,7.002234,Wennmann,SHOP_CLOTHES,21.93171219946131
50.8299958,4.3595759,"Ambasciata d'Italia, Cancelleria Consolare",AMENITY_PUBLICBUILDING,21.95449840010015
47.229133000000004,8.8204842,Interdiscount,SHOP_COMPUTER,21.97726097583591
52.9947879,6.561005199999999,Pour Vous,SHOP_DEPARTMENTSTORE,22.0
54.5950249,-5.9232873,Markets,POI_SUBURB,22.0
52.10422910000001,4.2769305,Keizerstraat,TRANSPORT_TRAMSTOP,22.0454076850486
52.3542908,4.9014532,Café Chris Scholten,FOOD_CAFE,22.0454076850486
52.44552879999999,13.574635,Ratskeller Köpenick,FOOD_RESTAURANT,22.0454076850486
52.2883235,-1.5314258,Jephson Memorial,TOURIST_MONUMENT,22.0454076850486
52.104109,4.2760237000000005,Etos,SHOP_CONVENIENCE,22.06807649071391
52.103979700000004,4.2761834,Toko Moerah,SHOP_CONVENIENCE,22.06807649071391
59.92263079999999,10.7327931,OsloMet,EDUCATION_UNIVERSITY,22.06807649071391
52.104058,4.2760976,Gall & Gall,SHOP_ALCOHOL,22.06807649071391
47.56777879999999,7.5906834000000005,Gatto Nero,FOOD_RESTAURANT,22.09072203437452
49.4853304,8.4442036,Saturn,SHOP_HIFI,22.11334438749598
51.953047999999995,7.6419084,Dejavu,FOOD_BAR,22.11334438749598
49.1866268,16.6043241,Valmont,SHOP_DEPARTMENTSTORE,22.13594362117865
48.19995220000001,16.3805875,Herlitschka,FOOD_RESTAURANT,22.13594362117865
50.8251729,4.370774,Kifkif,FOOD_RESTAURANT,22.13594362117865
47.9885593,7.8542083,Kebab House,FOOD_FASTFOOD,22.15851980616034
52.3697807,4.8701974,Pagode,FOOD_RESTAURANT,22.15851980616034
52.1039211,4.2765927,Subway,FOOD_FASTFOOD,22.15851980616034
52.104311700000004,4.2758262,'t Toefje,SHOP_FLORIST,22.15851980616034
50.8308127,4.3555003,Basisschool De Bron,EDUCATION_SCHOOL,22.18107301281884
55.68253789999999,12.5505535,Forum Shop 'n' Go,SHOP_CONVENIENCE,22.203603311174522
47.2291187,8.8207952,Vögele Shoes,SHOP_SHOES,22.203603311174522
55.682539,12.550529,Kato Sushi,FOOD_RESTAURANT,22.203603311174522
52.3540929,4.9020371,Landmarkt,SHOP_SUPERMARKET,22.203603311174522
47.229158500000004,8.8207122,McPaper,SHOP_COPYSHOP,22.203603311174522
52.3521283,4.8826168,Apotheek Oud Zuid,HEALTH_PHARMACY,22.203603311174522
55.8774642,-4.290493700000002,Crepe a Croissant,FOOD_CAFE,22.24859546128699
44.84905300000001,-0.5704606,CAPC,TRANSPORT_TRAMSTOP,22.24859546128699
55.67046360000001,12.5881013,Fedtekælderen,AMENITY_PUBLICBUILDING,22.24859546128699
47.5677589,7.5903535,Café frühling,FOOD_CAFE,22.24859546128699
51.42982670000001,7.003738900000001,Honorarkonsulat von Thailand,POI_EMBASSY,22.24859546128699
49.4854626,8.444006300000002,Toys'R us,SHOP_TOYS,22.24859546128699
52.994918999999996,6.561328,Hans Anders,SHOP_DEPARTMENTSTORE,22.24859546128699
52.995185,6.561411,Boerema Lederwaren,SHOP_DEPARTMENTSTORE,22.24859546128699
45.4528691,9.200819599999999,Gelateria Porta Romana,FOOD_ICECREAM,22.24859546128699
44.849061799999994,-0.5704986999999999,CAPC,TRANSPORT_TRAMSTOP,22.24859546128699
52.3547235,4.9015438,Marqt,SHOP_SUPERMARKET,22.271057451320086
51.2110506,4.4019178,Sint-Lievenscollege,EDUCATION_COLLEGE,22.271057451320086
51.7476449,-1.2354943,Tesco Metro,SHOP_SUPERMARKET,22.293496809607955
55.68277,12.550001199999999,The Bagel Co,FOOD_FASTFOOD,22.293496809607955
60.1966323,24.9526145,Grili Elisabeth,FOOD_RESTAURANT,22.293496809607955
47.5680679,7.5905993,La Fourchette,FOOD_RESTAURANT,22.293496809607955
52.103918900000004,4.2767949,Keizerstraat,TRANSPORT_TRAMSTOP,22.315913604421397
45.4561308,9.204543199999998,Farmacia Monte Nero,HEALTH_PHARMACY,22.33830790368868
52.3544749,4.9017626,Babo,FOOD_FASTFOOD,22.383029285599388
45.4556842,9.1988746,Liceo Classico Giovanni Berchet,EDUCATION_SCHOOL,22.383029285599388
52.354565,4.9016793,Mozo,FOOD_RESTAURANT,22.383029285599388
51.4305749,7.002863799999999,Meat,FOOD_RESTAURANT,22.383029285599388
52.1652136,4.4913115,Cathrijn Maartensdochterhofje,SHOP_FLORIST,22.40535650240808
52.3710506,4.8708130999999995,Bilderdijkstraat,TRANSPORT_TRAMSTOP,22.40535650240808
52.3545914,4.901600900000001,Coffeeshop Blue Sea,FOOD_CAFE,22.40535650240808
51.7630225,-1.2623453000000002,Founder's Building,EDUCATION_UNIVERSITY,22.40535650240808
46.203035299999996,6.1336796,Palladium,TRANSPORT_TRAMSTOP,22.427661492005807
52.1046895,4.2766454000000005,Bethelkerk,POW_CHRISTIAN,22.427661492005807
50.830602,4.3560604000000005,Bab Dar,FOOD_RESTAURANT,22.44994432064365
57.706412199999995,11.9838625,Restaurang Ullevigatan,FOOD_RESTAURANT,22.44994432064365
52.104414399999996,4.2759252,Jorplace,ACCOMMO_HOSTEL,22.44994432064365
52.1044823,4.275835,Blokker,SHOP_DEPARTMENTSTORE,22.44994432064365
52.1024729,4.277233,Begraafplaats Ter Navolging,BARRIER_BLOCKS,22.44994432064365
61.0595968,28.190779,Kansanlähetys,POW_CHRISTIAN,22.494443758403982
52.10422670000001,4.2762462,Albert Heijn Keizerstraat,SHOP_SUPERMARKET,22.494443758403982
52.445077100000006,13.5740095,Rathaus Bistro,FOOD_FASTFOOD,22.516660498395403
57.706404000000006,11.984146,7-Eleven,SHOP_KIOSK,22.538855339169288
50.8321183,4.356917299999999,Bio c' bon,SHOP_CONVENIENCE,22.538855339169288
52.4457836,13.5744206,Atlas Reisen,SHOP_DEPARTMENTSTORE,22.56102834535696
51.4300589,7.0036127000000015,Döbbe,SHOP_BAKERY,22.58317958127243
45.45604760000001,9.2050227,Seven,FOOD_RESTAURANT,22.58317958127243
47.2290336,8.8207551,Schild,SHOP_CLOTHES,22.58317958127243
61.059200399999995,28.19145,Kuvari Fujifilm,SHOP_DEPARTMENTSTORE,22.58317958127243
61.059,28.1915478,Handelsbank,MONEY_BANK,22.58317958127243
50.8254055,4.3521778,ESA Saint-Luc,EDUCATION_COLLEGE,22.605309110914632
44.849028000000004,-0.5707553000000001,Symbiose,FOOD_BAR,22.605309110914632
49.4853917,8.443419300000002,McDonald's,FOOD_FASTFOOD,22.62741699796952
50.0469126,19.953403100000006,Dermika,SHOP_HAIRDRESSER,22.62741699796952
52.3712089,4.8708777,Bilder & de Clercq,SHOP_SUPERMARKET,22.62741699796952
55.68176879999999,12.554444,Sengekompagniet,SHOP_DEPARTMENTSTORE,22.64950330581225
52.3487287,4.894117,Ciel Bleu,FOOD_RESTAURANT,22.64950330581225
50.8274145,4.3536338,Neufchatel,ACCOMMO_HOTEL,22.67156809750927
36.4622045,-6.1951072,Molino de Marea del Zaporito,TOURIST_MUSEUM,22.67156809750927
61.0594446,28.1908749,Lastentarvikekirppis Trampoliini,SHOP_CONVENIENCE,22.737634001804146
55.6819882,12.5543323,Radio,FOOD_RESTAURANT,22.759613353482084
53.2224537,6.574772500000001,Personeelsrestaurant,FOOD_RESTAURANT,22.781571499789035
51.488441200000004,-0.1786328,Fisher Hall,EDUCATION_UNIVERSITY,22.781571499789035
55.682223,12.5500284,Forum Tandlæge & Implantat Center,HEALTH_DENTIST,22.803508501982762
52.354422899999996,4.9013252,Kruidvat,SHOP_CONVENIENCE,22.803508501982762
45.4565644,9.1990185,Via Lamarmora - Via Commenda,TRANSPORT_TRAMSTOP,22.82542442102665
52.408701799999996,12.5646416,Dahlback,SHOP_BAKERY,22.82542442102665
51.507992,-0.20347839999999998,The Mitre,FOOD_PUB,22.82542442102665
52.1053251,4.279359599999999,Erik de Wit,SHOP_MOTORCYCLE,22.84731931759173
46.6142015,13.853235399999999,VS 2,EDUCATION_SCHOOL,22.84731931759173
55.68188290000001,12.5543234,Mattsson & McGehee,SHOP_MUSIC,22.869193252058547
52.4450096,13.574272800000001,CJ-32,SHOP_CLOTHES,22.869193252058547
52.4449906,13.574375400000001,eisbar,FOOD_CAFE,22.869193252058547
52.4459674,13.5749014,Santander,MONEY_BANK,22.869193252058547
52.1038693,4.2770468,Refill,FOOD_PUB,22.891046284519195
52.4088105,12.5639694,C&A,SHOP_CLOTHES,22.912878474779202
51.4880851,-0.1790682,Holbein Hall,EDUCATION_UNIVERSITY,22.912878474779202
52.444877899999994,13.575443099999998,Mode-Eck,SHOP_CLOTHES,22.912878474779202
52.444984999999996,13.5743988,Eisbar Friederici,FOOD_ICECREAM,22.912878474779202
52.4450012,13.5744098,Touristinformation Treptow-Köpenick,TOURIST_INFORMATION,22.912878474779202
50.82992470000001,4.3587639000000005,The Funny Horse Club,FOOD_BAR,22.93468988235943
51.2461951,22.5472424,Skłodowska,ACCOMMO_HOSTEL,22.93468988235943
52.40850070000001,12.564600500000001,Media Markt,SHOP_HIFI,22.956480566497998
52.38332070000001,4.886303,Schoonheids Salon,SHOP_HAIRDRESSER,22.956480566497998
52.4085011,12.5644375,dm Markt,SHOP_CONVENIENCE,22.956480566497998
46.2030023,6.1336829,Palladium,TRANSPORT_TRAMSTOP,22.978250586152114
55.682384,12.5501592,Southern Sushi,FOOD_RESTAURANT,23.021728866442675
51.558411299999996,-1.7793493999999999,New Delhi,FOOD_RESTAURANT,23.021728866442675
52.444153,13.5795204,Tandoori Palace,FOOD_RESTAURANT,23.065125189341593
52.1047792,4.2790695,Hubo,SHOP_DIY,23.08679276123039
51.7628953,-1.2628319,College Library,EDUCATION_UNIVERSITY,23.08679276123039
51.490587899999994,-0.18329979999999998,The Drayton Arms,FOOD_PUB,23.08679276123039
50.8310075,4.3561649000000005,Kanodou Resto,FOOD_RESTAURANT,23.08679276123039
51.7626152,-1.2614131000000002,Trenaman House,EDUCATION_UNIVERSITY,23.08679276123039
52.1045859,4.2790566,Profil Quist,SHOP_BICYCLE,23.10844001658269
46.1668105,8.790206300000001,PREMIUM BIKE,SHOP_BICYCLE,23.10844001658269
52.38334310000001,4.886173599999999,Bagels & Beans,FOOD_CAFE,23.10844001658269
51.4878987,-0.1787654,Willis Jackson Hall,EDUCATION_UNIVERSITY,23.10844001658269
51.24592970000001,22.547601,Shawarma,FOOD_FASTFOOD,23.10844001658269
51.76297810000001,-1.2630536,Russian and Eurasian Studies Library,EDUCATION_UNIVERSITY,23.130067012440755
52.383070000000004,4.8867947,Addiction,SHOP_CLOTHES,23.130067012440755
61.0589929,28.190056899999995,Lucky Monkeys,FOOD_PUB,23.151673805580447
61.059057900000006,28.190149600000005,Löytökirppis,SHOP_CONVENIENCE,23.151673805580447
51.343194200000006,12.364457400000001,Mr. Wok,FOOD_FASTFOOD,23.17326045251293
44.8489877,-0.5708513000000001,Agem Bordeaux,SHOP_DEPARTMENTSTORE,23.19482700948641
53.2224426,6.576059599999999,Etos,SHOP_CONVENIENCE,23.19482700948641
45.4551097,9.200147300000001,La Bettola Di Piero,FOOD_RESTAURANT,23.19482700948641
51.245151,22.5494397,TK Maxx,SHOP_CLOTHES,23.216373532487804
59.9281515,10.7099698,Barnegruppe,TOURIST_ART,23.216373532487804
50.8309448,4.3565497,Penta Hotel Brussels City Center,ACCOMMO_HOTEL,23.216373532487804
51.760249,-1.2668158,Phoenix Picturehouse,TOURIST_CINEMA,23.259406699226016
51.4906436,-0.1838421,Nicolas,SHOP_ALCOHOL,23.259406699226016
51.2116804,4.3980399000000014,Thomas More campus National,EDUCATION_COLLEGE,23.259406699226016
50.8310617,4.3565512,La Papelotte,FOOD_RESTAURANT,23.259406699226016
59.9282108,10.7099792,Colosseum Park,LANDUSE_GRASS,23.28089345364563
51.7476737,-1.2361243999999998,Boots,HEALTH_PHARMACY,23.302360395462088
53.2222735,6.5760769,Rituals,SHOP_HAIRDRESSER,23.302360395462088
52.3837924,4.8888736,Blaauwhooft,FOOD_PUB,23.302360395462088
52.3832695,4.8862986,Nivo Schweitzer pro foto & video,SHOP_DEPARTMENTSTORE,23.323807579381203
61.0587806,28.190469899999997,Nuijamies,TOURIST_CINEMA,23.366642891095854
41.3736968,2.1440368,Santa Ceviche,FOOD_RESTAURANT,23.366642891095854
61.05876039999999,28.1909804,iTronic,SHOP_COMPUTER,23.366642891095854
51.55843460000001,-1.7792544,Pizza Hut,FOOD_RESTAURANT,23.40939982143925
52.382960499999996,4.8868268,Silver Screen,SHOP_VIDEORENTAL,23.430749027719962
49.2301472,7.004460400000001,City Grill Saarbrücken Persische Restaurant,FOOD_RESTAURANT,23.45207879911715
51.7484099,-1.2406955,Temple Lounge,FOOD_RESTAURANT,23.45207879911715
51.7486925,-1.2407498,W S COOKE,SHOP_DEPARTMENTSTORE,23.45207879911715
52.382928299999996,4.8868913,De Dolfijn,SHOP_BOOK,23.45207879911715
52.3832408,4.8863654,Grapedistrict,SHOP_DEPARTMENTSTORE,23.473389188611
52.3832461,4.8864486,Café Restaurant Deksels,FOOD_RESTAURANT,23.473389188611
52.38316870000001,4.8865665,Op De Dijk,SHOP_SHOES,23.473389188611
52.4448439,13.575158199999999,Bunte Fetzen,SHOP_CLOTHES,23.473389188611
52.3712911,4.871289099999999,Mook Pancakes,FOOD_RESTAURANT,23.49468024894146
57.705724399999994,11.9844158,Condeco,FOOD_CAFE,23.515952032609693
45.454681,9.2019817,International Kid's School,EDUCATION_SCHOOL,23.515952032609693
51.3428375,12.3643398,Schmuckkästchen,SHOP_JEWELRY,23.53720459187964
51.5088053,7.0935277999999995,Altstadt,POI_SUBURB,23.579652245103194
57.7100678,11.9844954,Liljewall Arkitekter,SHOP_DEPARTMENTSTORE,23.579652245103194
53.077676600000004,8.8234388,EDEKA Fehner,SHOP_SUPERMARKET,23.60084744241189
48.7170613,21.250388100000002,La Siesta,FOOD_RESTAURANT,23.60084744241189
47.641611,6.8586234,Office du tourisme,SHOP_BICYCLE,23.60084744241189
49.8666081,8.646819699999998,Claudia Stenner Friseure,SHOP_HAIRDRESSER,23.60084744241189
55.68304000000001,12.5502164,Sikhiu,FOOD_RESTAURANT,23.62202362203543
51.2448358,22.549851399999998,Dr Zdrowie,HEALTH_PHARMACY,23.62202362203543
60.1791405,24.9308135,Opera Ophidia,TOURIST_ART,23.62202362203543
52.366434399999996,4.924353599999999,Albert Heijn,SHOP_SUPERMARKET,23.64318083507377
52.384685,4.882499,Pasticceria,FOOD_CAFE,23.64318083507377
51.4906176,-0.1834469,Dhawan News,SHOP_CONVENIENCE,23.664319132398468
50.0959604,14.449910699999998,River Garden Grill,FOOD_RESTAURANT,23.664319132398468
45.479445399999996,9.224798300000002,Carrefour Market,SHOP_SUPERMARKET,23.664319132398468
45.4551122,9.2013602,Supreme,FOOD_RESTAURANT,23.68543856465402
49.8651289,8.6499891,St. Ludwig mit Eichbergviertel,POI_SUBURB,23.68543856465402
52.4096524,12.5640655,Metzgerei Ewald,SHOP_BUTCHER,23.68543856465402
51.2101593,4.4016995,Tang's,FOOD_RESTAURANT,23.68543856465402
51.3429276,12.3643655,Ali Baba,FOOD_FASTFOOD,23.706539182259394
50.8491771,4.371492099999998,Mirano Continental,TOURIST_NIGHTCLUB,23.706539182259394
41.408189899999996,2.1706847999999996,Unió Esportiva Gaudí,SPORT_BASKETBALL,23.706539182259394
46.166963700000004,8.7899249,Migrolino,SHOP_CONVENIENCE,23.706539182259394
50.82435039999999,4.3505560999999995,Cipac Wear,SHOP_DIY,23.748684174075837
49.86657720000001,8.6468327,Hairport,SHOP_HAIRDRESSER,23.748684174075837
51.3438,12.3652192,von Meck,FOOD_RESTAURANT,23.748684174075837
51.4992528,-0.1983821,Byron,FOOD_RESTAURANT,23.748684174075837
50.622230200000004,3.0605891,Lidl,SHOP_SUPERMARKET,23.769728648009423
60.175992799999996,24.809272399999998,Tapiolanympyrä,LANDUSE_GRASS,23.79075450674064
61.057717000000004,28.1863043,Jack Jones,SHOP_CLOTHES,23.811761799581323
51.490637799999995,-0.1837626,Cambio de Tercio,FOOD_RESTAURANT,23.811761799581323
52.4435066,13.579078599999999,J.@M.one,FOOD_PUB,23.811761799581323
49.5983979,17.2517817,Blues Rock Cafe,FOOD_PUB,23.811761799581323
53.2225125,6.5756144,Centrale Medische Bibliotheek,AMENITY_LIBRARY,23.83275057562597
52.1051908,4.279340900000001,Rollerwave,SHOP_MOTORCYCLE,23.83275057562597
51.7486034,-1.238968,Goldie,EDUCATION_UNIVERSITY,23.83275057562597
51.4908151,-0.18283670000000002,Star of India,FOOD_RESTAURANT,23.83275057562597
61.058640000000004,28.191782,Reporanka,SHOP_PET,23.853720883753127
55.68250740000001,12.5508937,Forum Pizza,FOOD_FASTFOOD,23.87467277262665
50.0731502,14.448473499999999,Kafárna Na kus řeči,FOOD_CAFE,23.87467277262665
55.6818416,12.5525695,Forum,TRANSPORT_SUBWAY,23.89560629069704
51.2435921,22.56079200000001,sklep spożywczy ,SHOP_CONFECTIONERY,23.89560629069704
52.1045736,4.2792559,Dierenwinkel Harstduiven,SHOP_PET,23.89560629069704
55.6818022,12.5525726,Forum,TRANSPORT_SUBWAY,23.89560629069704
41.37244620000001,2.1434007,Sana Books,SHOP_DEPARTMENTSTORE,23.89560629069704
55.68177289999999,12.5525121,Forum,TRANSPORT_SUBWAY,23.89560629069704
52.4447187,13.575304999999998,Wittstock,SHOP_DEPARTMENTSTORE,23.916521486202804
50.824413,4.3505282,The Skull,SHOP_BOOK,23.93741840717165
55.6850166,12.548167900000001,Satang Thai Bistro,FOOD_FASTFOOD,23.95829710142188
41.3723545,2.1429068,"Contaval automatismos y componentes electrónicos, S.L.",SHOP_DIY,23.95829710142188
51.3429816,12.364586300000001,Wendl,FOOD_CAFE,23.9791576165636
37.9840796,-1.1222365,Charter,SHOP_SUPERMARKET,23.9791576165636
50.8244506,4.3503940000000005,Cipac,SHOP_DIY,23.9791576165636
52.105056299999994,4.279304499999999,Verhuur Scheveningen,SHOP_DEPARTMENTSTORE,23.9791576165636
51.748638799999995,-1.2391836999999999,Big Society,FOOD_PUB,23.9791576165636
57.7059299,11.9844129,Fitness 24seven,SPORT_GYM,24.020824298928627
51.243386799999996,22.561329,DABO,SHOP_CARREPAIR,24.020824298928627
43.5988628,3.9007977999999994,Le Méridien,FOOD_RESTAURANT,24.020824298928627
43.598804200000004,3.9006442999999997,Les Jardins de Marrakech,FOOD_RESTAURANT,24.041630560342607
45.49017,9.1830088,Viva la Vida,FOOD_RESTAURANT,24.041630560342607
52.409568900000004,12.5644008,HypoVereinsbank,MONEY_BANK,24.041630560342607
51.7488417,-1.2396719999999999,Cowley Road Methodist Church Centre,POW_CHRISTIAN,24.041630560342607
51.7488576,-1.2408037,Door 74,FOOD_RESTAURANT,24.041630560342607
51.2103803,4.4019639999999995,De Broers van Julienne,FOOD_RESTAURANT,24.062418831031927
52.445988,13.5741011,Luise,FOOD_RESTAURANT,24.08318915758459
51.74878320000001,-1.2387966000000001,James Mellon Hall,EDUCATION_UNIVERSITY,24.08318915758459
59.92276579999999,10.7343284,Dalsbergstien barnehage,EDUCATION_NURSERY,24.08318915758459
57.71006120000001,11.9847557,Manana,FOOD_RESTAURANT,24.08318915758459
51.7488551,-1.2387863000000001,James Mellon Hall,EDUCATION_UNIVERSITY,24.145392935299274
60.1648969,24.914331100000002,Lepakonaukio,TOURIST_FOUNTAIN,24.186773244895647
44.8315971,-0.5601879,Centre André Malraux,TOURIST_ART,24.20743687382041
50.8241316,4.3501829,Moris,TRANSPORT_TRAMSTOP,24.20743687382041
51.3429912,12.3650118,Brückensprengungsdenkmal,TOURIST_MEMORIAL,24.20743687382041
51.51370470000001,7.0945477,die flora,TOURIST_ART,24.228082879171435
51.7605485,-1.2665334,Kowloon House,FOOD_FASTFOOD,24.248711305964278
45.814271399999996,8.8300923,L'Insubrica,SHOP_BOOK,24.248711305964278
43.599742799999994,3.8947495,Bouygues Immobilier,SHOP_DEPARTMENTSTORE,24.248711305964278
52.66792589999999,-8.621304199999999,Mary Street Garda Station Extension (Closed 2013),AMENITY_POLICE,24.269322199023193
51.760174400000004,-1.2665426000000002,Jericho Tavern,FOOD_PUB,24.269322199023193
51.7603911,-1.2663214,Mind,SHOP_DEPARTMENTSTORE,24.269322199023193
51.7604203,-1.2663619,The Standard Tandoori,FOOD_RESTAURANT,24.269322199023193
50.823985799999996,4.3498268,Almata,SHOP_CONVENIENCE,24.28991560298224
52.33319,5.2218260999999995,Koester diversiteit/Man zonder hoofd,TOURIST_ART,24.28991560298224
47.5632836,7.5980913,Cenci Velos Motos,SHOP_BICYCLE,24.310491562286444
51.249243799999995,22.548791899999998,Zegar Słoneczny,TOURIST_ART,24.33105012119288
60.1775387,24.8096422,Enkeli,TOURIST_ART,24.35159132377184
51.4908409,-0.1829396,Londis,SHOP_CONVENIENCE,24.372115213907882
51.2106091,4.3978955,Baron,FOOD_PUB,24.372115213907882
51.245869899999995,22.548371300000003,Peron 2,FOOD_PUB,24.392621835300933
50.8262229,4.351923200000001,Institut supérieur Saint-Luc,EDUCATION_COLLEGE,24.413111231467404
51.5401352,-0.15436329999999998,William Butler Yeats,TOURIST_MEMORIAL,24.433583445741228
45.054568599999996,7.6760417,Simpatia CRAI,SHOP_SUPERMARKET,24.454038521274967
52.4461,13.574628599999999,Steinecke,SHOP_BAKERY,24.454038521274967
51.4990214,-0.1980452000000001,Waitrose,SHOP_SUPERMARKET,24.454038521274967
52.44621770000001,13.574703699999999,Friseur am Rathaus,SHOP_HAIRDRESSER,24.494897427831784
51.74756,-1.2366216,Cycloanalysts,SHOP_BICYCLE,24.535688292770594
51.7484066,-1.2383,Mario's Pizzeria,FOOD_RESTAURANT,24.535688292770594
45.4551486,9.201667,Orti 16,FOOD_RESTAURANT,24.535688292770594
50.827718299999994,4.3711867,Wok Indonesia,FOOD_FASTFOOD,24.535688292770594
51.74840560000001,-1.2384073999999998,Truck Store,SHOP_DEPARTMENTSTORE,24.535688292770594
51.4995499,-0.19780129999999999,Sticky Fingers,FOOD_RESTAURANT,24.556058315617353
52.4446946,13.575184699999998,Supani,FOOD_RESTAURANT,24.556058315617353
50.8274956,4.3714883,De Valeras,FOOD_PUB,24.556058315617353
46.1670288,8.7897479,Socar,TRANSPORT_FUEL,24.576411454889016
55.697333900000004,12.575511800000001,Ryes Café,FOOD_CAFE,24.576411454889016
51.5091417,7.0906811,Evangelisches Seniorenstift Gelsenkirchen,AMENITY_PUBLICBUILDING,24.576411454889016
57.71004350000001,11.9850885,Specialized Concept Store Göteborg,SHOP_BICYCLE,24.59674775249769
51.24512070000001,22.5484435,Sąd Apelacyjny,AMENITY_COURT,24.59674775249769
51.2104059,4.4270687,Arass,ACCOMMO_HOTEL,24.59674775249769
51.4997497,-0.1976842,Phillies Cafe,FOOD_CAFE,24.59674775249769
47.511679799999996,19.0465518,Kovács Béla-szobor,TOURIST_MEMORIAL,24.617067250182338
55.6973845,12.5751581,Nazaret Kirke,POW_CHRISTIAN,24.617067250182338
59.365588,17.971674,Frosth blommor,SHOP_FLORIST,24.617067250182338
55.6832372,12.550365800000002,CheapInk,SHOP_COPYSHOP,24.617067250182338
41.3730158,2.1438745,Xemeneia Hostafranchs,TOURIST_MONUMENT,24.617067250182338
59.31633620000001,18.050697500000002,Ring Side,FOOD_FASTFOOD,24.63736998950984
60.181535200000006,24.929721100000002,Suomen Kansallisooppera ja -baletti,TOURIST_THEATRE,24.63736998950984
46.9516657,7.4262162,Kindergarten Depotstrasse,EDUCATION_NURSERY,24.63736998950984
51.4996126,-0.1975031,"Kensington, Phillimore Gardens",SHOP_BICYCLE,24.657656011875908
51.4801459,-0.1925856,Chelsea Independent College,EDUCATION_SCHOOL,24.67792535850613
50.8275693,4.3714151,Le Pitch-Pin,FOOD_PUB,24.67792535850613
43.6007605,3.9023535000000003,MIA,FOOD_RESTAURANT,24.698178070456933
50.8244245,4.3509694,Moris,TRANSPORT_TRAMSTOP,24.698178070456933
53.077817599999996,8.8226506,Uptown,FOOD_PUB,24.698178070456933
51.4490921,-0.3277029,St Mary's CE Primary School (Infants),EDUCATION_SCHOOL,24.718414188616553
55.6832595,12.5475162,Irma,SHOP_SUPERMARKET,24.738633753705958
51.2107114,4.3976419,De Geus,SHOP_BICYCLE,24.738633753705958
60.194206799999996,24.9447777,Pasilan konepaja,TRANSPORT_TRAMSTOP,24.738633753705958
50.8302688,4.3509663,La Subida,FOOD_FASTFOOD,24.75883680627989
51.512836,7.091522900000001,Volkshochschule,EDUCATION_COLLEGE,24.75883680627989
52.4463289,13.574810999999999,Altstadtcafé Cöpenick,FOOD_CAFE,24.75883680627989
44.6516379,10.9253899,Parco Novi Sad,SHOP_BICYCLE,24.77902338672773
52.382625399999995,4.8875391,Stage 64,SHOP_CLOTHES,24.77902338672773
59.3325618,18.0871484,Mäklarringen,SHOP_DEPARTMENTSTORE,24.799193535274487
45.054192799999996,7.675897999999999,Jolly Sport,SHOP_MOTORCYCLE,24.819347291981718
45.0550375,7.675851,Euronics,SHOP_HIFI,24.839484696748446
45.054256,7.6759185,Sport residence,ACCOMMO_HOTEL,24.839484696748446
51.7605011,-1.2664699,Saratoga Fine Lingerie,SHOP_CLOTHES,24.859605789312106
51.49921320000001,-0.19748670000000002,Nando's,FOOD_RESTAURANT,24.859605789312106
51.7604693,-1.266427,Lloyds pharmacy,HEALTH_PHARMACY,24.859605789312106
60.18211120000001,24.929728100000002,Kivinen vieras,TOURIST_ART,24.859605789312106
40.272026200000006,22.5005616,Σταρ,SHOP_LAUNDRETTE,24.919871588754226
40.271870899999996,22.5004448,Πτηνοτροφεία Συρανίδη,SHOP_BUTCHER,24.919871588754226
47.205903,-1.5677845,Carrousel des Mondes Marins,TOURIST_ATTRACTION,24.93992782667985
43.33977410000001,3.2199088,Pizza Mario,FOOD_FASTFOOD,24.93992782667985
55.6977417,12.5764189,Hotel Rye,ACCOMMO_HOTEL,24.93992782667985
45.0551377,7.6758804000000005,Palestre Italiane,SPORT_GYM,24.93992782667985
47.2059151,-1.5677756,Le Carrousel des Mondes Marins,TOURIST_ATTRACTION,24.93992782667985
51.48014050000001,-0.1923366,Kona Kai,FOOD_BAR,24.959967948697372
51.4992453,-0.185211,Equus Hair,SHOP_HAIRDRESSER,24.959967948697372
45.465320500000004,7.8797668000000005,Profumeria Erniani,SHOP_CONVENIENCE,24.979991993593593
60.165137,24.915920899999996,Islamilainen hautausmaa,BARRIER_BLOCKS,25.039968051097826
55.6834911,12.546649,I Den Gamle Stil,SHOP_DEPARTMENTSTORE,25.039968051097826
52.382492299999996,4.8876873,Coffee Company,FOOD_CAFE,25.079872407968914
52.6671447,-8.619547500000001,Absolute Hotel,ACCOMMO_HOTEL,25.09980079602227
51.4989948,-0.1991229,Kensington,POI_TOWN,25.11971337416094
45.0538231,7.6760908,Nizza,TRANSPORT_TRAMSTOP,25.13961017995307
51.4992843,-0.1853011,Envie D'Art,SHOP_DEPARTMENTSTORE,25.13961017995307
59.3324074,18.0864229,Stefan Etelöf - möbelkonservator NKF,SHOP_DEPARTMENTSTORE,25.15949125081825
52.4443409,13.5753837,Schloßplatz Köpenick,TRANSPORT_TRAMSTOP,25.15949125081825
51.210684,4.397163900000002,Meat & Eat,FOOD_RESTAURANT,25.15949125081825
51.2103091,4.396954099999999,Marnixplaats,SHOP_BICYCLE,25.179356624028344
59.3323897,18.086483800000003,Antikviteter Modern Form,SHOP_DEPARTMENTSTORE,25.179356624028344
51.2103833,4.3974475,Marnixstandbeeld,TOURIST_ART,25.179356624028344
52.38244270000001,4.8877809999999995,'t Stomerijtje,SHOP_CONVENIENCE,25.219040425836983
55.69780720000001,12.5774353,Sortedamskolen,EDUCATION_SCHOOL,25.238858928247925
51.4989809,-0.197122,Premier Dry Cleaners,SHOP_LAUNDRETTE,25.27844931952908
50.8952425,14.808530300000001,Gardinen- & Möbelhaus Neumann,SHOP_CLOTHES,25.29822128134704
50.8953595,14.808651399999999,Leo Elend,TOURIST_MEMORIAL,25.29822128134704
50.8246495,4.34995,la.mi.do.re,SHOP_BAKERY,25.317977802344327
51.21015870000001,4.397006299999998,Vitrin,FOOD_CAFE,25.33771891863985
43.6105635,1.4560874,L'autre boulangerie,SHOP_BAKERY,25.33771891863985
50.895561900000004,14.8084962,Mutter und Kind,SHOP_TOYS,25.33771891863985
50.8956236,14.8086954,THEILE & WAGNER,SHOP_TOYS,25.33771891863985
48.398891799999994,-4.4729640999999996,Archipel Santé,HEALTH_HOSPITAL,25.35744466621193
45.481002600000004,9.2263506,Bio c' Bon,SHOP_SUPERMARKET,25.35744466621193
52.382821299999996,4.887169999999999,K.S. Supermarket,SHOP_CONVENIENCE,25.35744466621193
52.362235999999996,4.9121872,De Fietsfabriek,SHOP_BICYCLE,25.377155080899037
51.4989304,-0.19826729999999998,Magnet,SHOP_DEPARTMENTSTORE,25.39685019840059
51.2104609,4.396930599999999,Lucy Chang,FOOD_RESTAURANT,25.39685019840059
39.4751441,-0.38698059999999995,Parroquia de San Miguel y San Sebastián,POW_CHRISTIAN,25.416530054277672
50.82826179999999,4.372984,Fernando Pessoa,TOURIST_ART,25.416530054277672
51.5130321,7.091842999999999,Gelsenkirchen Musiktheater,SHOP_BICYCLE,25.416530054277672
44.8484816,-0.5713034,Bourse Maritime,TOURIST_ATTRACTION,25.43619468395381
50.895705299999996,14.808465,Uhren-Schmuck,SHOP_JEWELRY,25.43619468395381
50.895702899999996,14.808392800000002,Wäsche und Miederwaren,SHOP_CLOTHES,25.43619468395381
51.498746000000004,-0.1974092,Our Lady of Victories,POW_CHRISTIAN,25.45584412271571
50.8957375,14.8086542,Schuh-Kellner,SHOP_SHOES,25.45584412271571
52.382686799999995,4.8874327000000015,Opnieuw,SHOP_CLOTHES,25.475478405713996
52.010833700000006,4.3677928,Café De Nieuwe Prins,FOOD_PUB,25.475478405713996
52.382731,4.887094,Etos,SHOP_CONVENIENCE,25.475478405713996
46.207583899999996,6.1336577000000005,Musée Voltaire,TOURIST_MUSEUM,25.475478405713996
50.1160902,8.6463226,La Contessa,FOOD_RESTAURANT,25.495097567963924
47.2059073,-1.5680614,La Fraiseraie,FOOD_CAFE,25.495097567963924
55.697734999999994,12.578279,Søpromenaden,FOOD_RESTAURANT,25.495097567963924
51.3433244,12.3656243,Leibnizstraße,TRANSPORT_TRAMSTOP,25.514701644346147
50.895889200000006,14.8086348,Jump In,SHOP_HAIRDRESSER,25.514701644346147
50.8959356,14.808622,Sport Wagus,SHOP_MOTORCYCLE,25.514701644346147
50.8271321,4.3717315999999995,Monument à Charles De Coster - Monument voor Charles De Coster,TOURIST_MEMORIAL,25.514701644346147
50.8956972,14.808314800000002,Helena- Mode am Rathaus,SHOP_CLOTHES,25.53429066960741
51.5420549,-0.1563298,Primrose hill surgery,HEALTH_HOSPITAL,25.53429066960741
41.4082195,2.1701870999999997,Bar Ricci,FOOD_CAFE,25.57342370508884
45.055358,7.675807700000001,Best Western Plus Executive Hotel,ACCOMMO_HOTEL,25.592967784139447
41.408528000000004,2.1693849999999997,475 - (PK) C/ DE LA MARINA 345,SHOP_BICYCLE,25.592967784139447
45.4895254,9.1830192,Belvedere,SHOP_HAIRDRESSER,25.612496949731394
50.89572020000001,14.807325800000001,Volksbank,MONEY_BANK,25.612496949731394
59.36587900000001,17.9706892,Sweet Treat Café,FOOD_CAFE,25.632011235952593
43.5997979,3.8945815,Crédit Foncier,MONEY_BANK,25.632011235952593
60.1768337,24.9171242,Ravintola Kaarti,FOOD_RESTAURANT,25.651510676761323
51.22998670000001,4.4126685,ING,MONEY_BANK,25.651510676761323
52.38277,4.8872544,Blokker Amsterdam,SHOP_CONVENIENCE,25.67099530598687
52.667169799999996,-8.6193659,Harry's on the River,FOOD_RESTAURANT,25.69046515733026
45.4343649,10.9892375,Hotel Trento,ACCOMMO_HOTEL,25.69046515733026
50.89672410000001,14.8082413,Dr. Thomas Immobilien GmbH,SHOP_DEPARTMENTSTORE,25.69046515733026
45.458542,9.207156,Briscola,FOOD_RESTAURANT,25.709920264364875
50.8967828,14.8083948,Orthopädie Schumacher Kittel,SHOP_SHOES,25.709920264364875
47.2056349,-1.5700767,Terrasse des Vents,LANDUSE_GRASS,25.709920264364875
53.3481456,-6.2375605000000025,Docklands,POI_SUBURB,25.709920264364875
53.633732200000004,11.4166026,MEDIAN Klinik Schelfstadt,HEALTH_HOSPITAL,25.72936066053721
40.2717776,22.5006576,Κατσαρός,SHOP_BAKERY,25.72936066053721
40.2718409,22.5006191,Κατσουλογιαννάκης,SHOP_DEPARTMENTSTORE,25.72936066053721
50.896133899999995,14.807687099999999,Tourismus Information Zittau,TOURIST_INFORMATION,25.748786379167466
50.8963097,14.807765599999998,Blumen am Rathaus,SHOP_FLORIST,25.768197453450252
57.7064876,11.982455900000001,Göteborgs tingsrätt,AMENITY_COURT,25.768197453450252
48.1979794,16.378196,Botschaft der Republik Kroatien in Österreich,POI_EMBASSY,25.78759391645525
50.8298372,4.3726655999999995,Malting Pot,SHOP_ALCOHOL,25.82634314028991
52.668013699999996,-8.622136300000001,VapourPal,SHOP_DEPARTMENTSTORE,25.82634314028991
43.0132192,-7.5629269,Clínica Dental Miguel Ángel Darriba,HEALTH_DENTIST,25.82634314028991
50.8962651,14.807494400000001,Johannis-Apotheke,HEALTH_PHARMACY,25.84569596664017
45.4896401,9.183075800000001,Opera 33,FOOD_BAR,25.84569596664017
52.382738399999994,4.8873455,Papabubble,SHOP_CONFECTIONERY,25.84569596664017
55.6976437,12.5781018,Den Franske Cafe,FOOD_CAFE,25.865034312755128
60.1654131,24.9162772,Vanha juutalainen hautausmaa,BARRIER_BLOCKS,25.88435821108957
60.1953709,24.950678699999997,Aarikan tehtaanmyymälä,SHOP_DEPARTMENTSTORE,25.903667693977237
55.697524800000004,12.5774963,Sortedamskolens skolegård,EDUCATION_SCHOOL,25.903667693977237
51.4664143,-0.065756,Tesco Express,SHOP_SUPERMARKET,25.903667693977237
50.093073,14.454217600000002,U slunce,HEALTH_PHARMACY,25.922962793631438
55.697658999999994,12.578166,Organic Hairdressing,SHOP_HAIRDRESSER,25.922962793631438
38.839892600000006,0.10146960000000001,Masymas,SHOP_SUPERMARKET,25.922962793631438
50.1159264,8.6476099,Verhaltenstherapie-Ambulanz,HEALTH_DOCTORS,25.94224354214569
50.89571710000001,14.806300699999998,Zum Henker,FOOD_PUB,25.94224354214569
51.67860220000001,8.347572,Ehrenmal,TOURIST_MEMORIAL,25.96150997149434
60.1658951,24.916247100000003,Jääkärien muistomerkki,TOURIST_MEMORIAL,25.980762113533157
41.403128499999994,2.1473567000000005,Thai Noodles del Petit Bangkok,FOOD_FASTFOOD,25.980762113533157
60.1755156,24.916980399999996,Taivallahden koulu,EDUCATION_SCHOOL,25.980762113533157
51.498633500000004,-0.20311300000000002,Leighton House Museum,TOURIST_MUSEUM,25.980762113533157
47.2066632,-1.5623975,Crèche Associative La Boîte à Musique,EDUCATION_NURSERY,26.0
46.16719129999999,8.7894507,Garage Rivapiana SA,SHOP_CARREPAIR,26.0
51.210052600000004,4.3972587999999995,Fiskebar,FOOD_RESTAURANT,26.019223662515373
51.4987344,-0.1986516,Chelsea Building Society,MONEY_BANK,26.019223662515373
52.3836547,4.8789597,Queen of Sheba,FOOD_RESTAURANT,26.019223662515373
52.229504,20.982878699999997,Freshmarket,SHOP_CONVENIENCE,26.019223662515373
47.20662670000001,-1.5657437,L'arbre à Basket,SPORT_BASKETBALL,26.038433132583073
52.2294809,20.9829069,Interdisciplinary Centre for Mathematical and Computational Modelling,EDUCATION_UNIVERSITY,26.038433132583073
60.1669466,24.9216005,Starter,FOOD_RESTAURANT,26.05762844159077
48.198111499999996,16.3778554,BAWAG PSK,MONEY_BANK,26.095976701399774
47.2063979,-1.5673008999999998,Cale des Sous-Marins,TOURIST_FOUNTAIN,26.095976701399774
47.2064756,-1.5609003000000001,École des Beaux-Arts de Nantes Saint-Nazaire,EDUCATION_COLLEGE,26.095976701399774
41.3730876,2.1442725,Plaça Joan Corrades,LANDUSE_GRASS,26.095976701399774
41.3730876,2.1442725,Plaça Joan Corrades,LANDUSE_GRASS,26.095976701399774
55.686399800000004,12.550232699999999,Cafe Tjili Pop 1,FOOD_CAFE,26.095976701399774
60.165874699999996,24.9156313,Kaartilaisten muistomerkki,TOURIST_MEMORIAL,26.115129714401192
40.2721352,22.5006533,Φούρνος Μάνης,SHOP_BAKERY,26.115129714401192
50.0951081,14.4512182,Dallucci,FOOD_CAFE,26.115129714401192
44.8511235,-0.5767051,Fleurs de Mars,SHOP_FLORIST,26.134268690743962
50.11218270000001,8.6561871,NH Frankfurt Messe,ACCOMMO_HOTEL,26.134268690743962
41.40817970000001,2.1693745,J.B.,FOOD_CAFE,26.15339366124404
60.16557020000001,24.91576400000001,Kaartin hautausmaa,BARRIER_BLOCKS,26.15339366124404
59.316885899999996,18.0503521,Zinkens Krog,FOOD_PUB,26.15339366124404
51.4984835,-0.19844070000000005,Jackie & Co,SHOP_HAIRDRESSER,26.15339366124404
51.498539,-0.1984651,Geranium Shop,SHOP_DEPARTMENTSTORE,26.19160170741759
50.1156441,8.6474053,Zahnarztpraxis Dr. med. dent. Sven Weiler,HEALTH_DENTIST,26.19160170741759
50.095164200000006,14.451452800000002,Signature Prague,FOOD_RESTAURANT,26.19160170741759
45.4799309,9.226556500000001,Jolly Student Food,FOOD_BAR,26.229754097207998
51.4985682,-0.19972,Jeeves,SHOP_LAUNDRETTE,26.248809496813372
50.094201399999996,14.4526889,Tankovna Karlin,FOOD_RESTAURANT,26.248809496813372
50.1163519,8.6466465,Veggie House,FOOD_RESTAURANT,26.248809496813372
50.8962533,14.8072339,Kolbe,SHOP_BAKERY,26.2678510731274
47.206462200000004,-1.566106,Esplanade des Traceurs-de-Coques,TOURIST_FOUNTAIN,26.2678510731274
45.0521266,7.6762570000000006,Giulio srls,SHOP_ALCOHOL,26.305892875931807
50.8275445,4.374124,Shell,TRANSPORT_FUEL,26.305892875931807
47.506326,19.0379853,Nagyi Palacsintázója,FOOD_FASTFOOD,26.305892875931807
52.443049699999996,13.576873499999998,Käpt´n Mosers Wassersportschule,EDUCATION_SCHOOL,26.305892875931807
51.4845073,-3.1702527000000003,Trevithick Building,EDUCATION_UNIVERSITY,26.305892875931807
50.8965318,14.8074203,La Casa Vecchia,FOOD_RESTAURANT,26.343879744638986
50.8959278,14.806108800000002,DER Deutsches Reisebüro,SHOP_DEPARTMENTSTORE,26.362852652928137
49.487419700000004,8.440726300000001,Best Grill,FOOD_FASTFOOD,26.362852652928137
59.317446600000004,18.050051899999996,Southside,FOOD_PUB,26.38181191654584
59.3176505,18.049746300000002,Zinkensdamm,TRANSPORT_SUBWAY,26.38181191654584
50.07124870000001,14.443062699999999,U Dědka,FOOD_RESTAURANT,26.38181191654584
50.8319489,4.3417821,Carrefour Market,SHOP_SUPERMARKET,26.38181191654584
51.4984464,-0.1984086,Cafe de Fred,FOOD_CAFE,26.40075756488817
51.4984081,-0.1983871,Isla Dry Cleaners,SHOP_LAUNDRETTE,26.40075756488817
52.3622526,4.9122853,Albert Heijn,SHOP_SUPERMARKET,26.40075756488817
51.4983888,-0.19837939999999998,Kensington Barbers,SHOP_HAIRDRESSER,26.40075756488817
50.827874200000004,4.3734901,La Fleur du Pain,SHOP_BAKERY,26.43860813280457
50.8289713,4.3397649000000005,Poissonnerie de la Méditerranée,SHOP_FISH,26.43860813280457
51.2032883,4.4278319,Cuperus,TRANSPORT_TRAMSTOP,26.43860813280457
55.69809620000001,12.5791299,Mariannes kaffebar,FOOD_CAFE,26.457513110645905
37.3977928,-6.0007159,Decoración Dávila de Castro,SHOP_DEPARTMENTSTORE,26.457513110645905
45.489332399999995,9.182939,L'Aquila d'Oro,FOOD_RESTAURANT,26.457513110645905
50.8957505,14.806831099999998,Wüstensonne,FOOD_FASTFOOD,26.457513110645905
50.89591420000001,14.806441699999999,Zittau,POI_TOWN,26.457513110645905
50.8959502,14.8059743,Hair Galery,SHOP_HAIRDRESSER,26.457513110645905
50.093150200000004,14.453249900000001,U Zábranských,FOOD_RESTAURANT,26.457513110645905
50.8957513,14.8070389,Fielmann,SHOP_DEPARTMENTSTORE,26.457513110645905
51.220846,4.4269772000000005,Albert Heijn,SHOP_SUPERMARKET,26.47640458974745
50.89501720000001,14.8085989,Stadtbäckerei Zittau,SHOP_BAKERY,26.47640458974745
50.115938899999996,8.6470484,Georg Wagner,TOURIST_MEMORIAL,26.514147167125703
52.259068,-7.1161707,Church Of The Most Holy Trinity Without,POW_CHRISTIAN,26.514147167125703
52.2590311,-7.116188799999999,Ballybricken Cemetery,BARRIER_BLOCKS,26.514147167125703
59.317685600000004,18.049937,Sone,FOOD_FASTFOOD,26.514147167125703
59.31719350000001,18.0502069,Pancho Villa,FOOD_RESTAURANT,26.514147167125703
45.4796261,9.2261285,Parrocchia San Pio X,POW_CHRISTIAN,26.514147167125703
59.3176406,18.0499586,Haircut Zinkens,SHOP_HAIRDRESSER,26.514147167125703
50.0918107,14.4548416,Forum Karlín,TOURIST_ART,26.514147167125703
44.65112020000001,10.922732,Parco di Piazza d'Armi Novi Sad,LANDUSE_GRASS,26.514147167125703
51.5419932,-0.1564371,primrose,HEALTH_PHARMACY,26.5329983228432
50.1159552,8.6469054,Mangetsu,FOOD_RESTAURANT,26.5329983228432
51.2077864,4.3976858,Burmex Computer,SHOP_HIFI,26.5329983228432
45.4793903,9.2260811,IT MI001 0011,TRANSPORT_FUEL,26.5329983228432
52.274745700000004,8.033913900000002,Come Back,FOOD_PUB,26.55183609470351
50.8434909,4.3712014,Square Frère-Orban - Frère-Orbansquare,LANDUSE_GRASS,26.55183609470351
45.4792529,9.2173918,Sansovino,HEALTH_PHARMACY,26.570660511172854
51.542126700000004,-0.1562225,Greenberry,FOOD_CAFE,26.570660511172854
50.093163399999995,14.453495000000002,Binox dalekohledy,SHOP_DEPARTMENTSTORE,26.589471600616665
60.17483829999999,24.9182169,How Violins Oy,SHOP_MUSIC,26.589471600616665
41.4034137,2.1470272,Creperia Krampus,FOOD_RESTAURANT,26.589471600616665
50.0929363,14.453661300000002,klub seniorů,TOURIST_THEATRE,26.589471600616665
51.5080136,-0.1897007,Perks Field,LANDUSE_GRASS,26.589471600616665
45.4798065,9.2270445,Architettura,EDUCATION_UNIVERSITY,26.60826939130014
59.317836899999996,18.0498643,Pane Vino,FOOD_RESTAURANT,26.60826939130014
59.31758520000001,18.0499852,Jonni's livs,SHOP_CONVENIENCE,26.60826939130014
47.20683,-1.5636583999999998,Le Progrès,FOOD_RESTAURANT,26.60826939130014
41.40323950000001,2.147158,La Terrassa,FOOD_CAFE,26.627053911388696
50.071725,14.445627800000002,Chutnej - vegan fast food,FOOD_FASTFOOD,26.627053911388696
41.403317,2.1471447999999995,Blavis,FOOD_RESTAURANT,26.627053911388696
55.68637929999999,12.5503135,Efess Pizza,FOOD_FASTFOOD,26.645825188948454
55.698007999999994,12.579055,Synoptik,SHOP_DEPARTMENTSTORE,26.645825188948454
55.6979777,12.579064,Hvid,SHOP_CLOTHES,26.645825188948454
59.317403399999996,18.0497077,Eclair,FOOD_CAFE,26.645825188948454
51.220962,4.426824099999998,Albert Heijn,SHOP_SUPERMARKET,26.645825188948454
55.698068799999994,12.5790101,Buch,SHOP_CLOTHES,26.645825188948454
48.3701117,10.907302,Türkischer Gemüsehändler,SHOP_GREENGROCER,26.66458325194677
51.499876799999996,-0.2001619,Design Museum,TOURIST_MUSEUM,26.683328128252672
50.8272591,4.3735302,ULB Faculté d'architecture,EDUCATION_UNIVERSITY,26.683328128252672
50.8274404,4.373516599999999,L'architecte,FOOD_RESTAURANT,26.683328128252672
50.8962559,14.8071191,Landfleischerei Schüttig,SHOP_BUTCHER,26.683328128252672
47.206863899999995,-1.5642575,Blockhaus DY10,POI_BUNKER,26.720778431774768
52.6664956,-8.618428300000001,Abbey Bridge,SHOP_BICYCLE,26.720778431774768
55.697883600000004,12.5791147,Hyiid,SHOP_CLOTHES,26.720778431774768
52.3495757,4.8843881,Faun with guitar,TOURIST_ART,26.739483914241877
51.207752899999996,4.3985096,Brederode,SHOP_BICYCLE,26.739483914241877
51.5074639,-0.2020513,Campden Hill Square,SHOP_FLORIST,26.739483914241877
59.317143099999996,18.049797,Platini,FOOD_FASTFOOD,26.776855677991772
51.4995086,-0.18704400000000002,Richmond University (Atlantic House),EDUCATION_UNIVERSITY,26.776855677991772
44.8119249,20.454817300000002,Економски факултет,EDUCATION_UNIVERSITY,26.79552201394852
60.167336399999996,24.921177,Maria,TRANSPORT_TRAMSTOP,26.79552201394852
53.3481916,-6.2395164,The Convention Centre Dublin,TOURIST_ATTRACTION,26.79552201394852
50.0719539,14.445732500000002,Šlágr,FOOD_CAFE,26.79552201394852
51.4985511,-0.1997876,Amplifon,SHOP_HEARINGAIDS,26.814175355583853
47.2256028,39.7167972,А. С. Пушкин,TOURIST_MEMORIAL,26.814175355583853
47.2067825,-1.5650815,Café de la branche,FOOD_CAFE,26.83281572999748
47.206978,-1.5650423999999998,Parvis des Nefs,TOURIST_FOUNTAIN,26.83281572999748
50.101017799999994,8.6614354,Franciso Villa,SHOP_HAIRDRESSER,26.83281572999748
51.4984615,-0.2015109,Primrose Bakery,FOOD_CAFE,26.87005768508881
59.3324554,18.086188500000002,Vivian Skräddare,SHOP_LAUNDRETTE,26.87005768508881
46.1557,-1.1469221,Guna,SHOP_HAIRDRESSER,26.888659319497503
52.383020200000004,4.8780599,Zaal 100,TOURIST_THEATRE,26.888659319497503
45.4795266,9.2263901,Teatro Leonardo da Vinci,TOURIST_THEATRE,26.90724809414742
50.8273969,4.3741556,Pessoa,FOOD_BAR,26.90724809414742
37.4036747,-5.9929635999999995,Torre de los Perdigones,POI_TOWERLOOKOUT,26.925824035672523
50.860175700000006,4.369159099999999,Albert,ACCOMMO_HOTEL,26.944387170614963
45.032189100000004,38.9732234,РивГош,SHOP_CLOTHES,26.944387170614963
59.317096299999996,18.0494171,Thongwiset,FOOD_FASTFOOD,26.96293752542553
52.668107299999996,-8.622505699999998,Nelly’s Corner,FOOD_CAFE,26.96293752542553
45.48981060000001,9.1831493,Il Desiderio 2,FOOD_RESTAURANT,26.96293752542553
59.3058059,18.0839593,Skeppet,EDUCATION_NURSERY,26.981475126464087
50.8965724,14.807317499999998,Jiyan Shisha Bar,FOOD_BAR,26.981475126464087
51.4988636,-0.1998231,Oracare Dental,HEALTH_DENTIST,27.0
50.8961414,14.806581,Markt,TOURIST_FOUNTAIN,27.0
51.498888,-0.199734,Gail's,FOOD_CAFE,27.0
60.1960493,24.944600100000002,LéSPACE,FOOD_CAFE,27.018512172212592
43.5921882,1.4404078000000002,Île du Ramier,TRANSPORT_TRAMSTOP,27.018512172212592
37.4028968,-5.9948731,Bar Antojo,FOOD_BAR,27.03701166919155
51.498356,-0.20141320000000001,Water'n'Gas,SHOP_DIY,27.03701166919155
51.49852360000001,-0.20111429999999997,Enotecha Rosso,FOOD_RESTAURANT,27.03701166919155
51.49854620000001,-0.2009962,Melbury Laundry,SHOP_LAUNDRETTE,27.03701166919155
52.218131799999995,21.0234169,Mauzoleum Walki i Męczeństwa,TOURIST_MUSEUM,27.05549851693737
45.0522811,7.6751532000000005,Le 3 Carni,SHOP_BUTCHER,27.05549851693737
45.05223,7.677519999999999,Luna's Torta,FOOD_CAFE,27.05549851693737
50.8954348,14.806643,Filmpalast,TOURIST_CINEMA,27.07397274136177
49.4875805,8.440566800000001,Selman Döner,FOOD_FASTFOOD,27.07397274136177
37.39856810000001,-6.000188,Sala Madalar.,TOURIST_NIGHTCLUB,27.09243436828813
37.3985597,-6.0001879,Sala Malandar,TOURIST_NIGHTCLUB,27.09243436828813
45.74733670000001,4.8347428,Pharmacie de l'Université,HEALTH_PHARMACY,27.09243436828813
51.2110345,4.4072607,Nationale Bank,SHOP_BICYCLE,27.09243436828813
52.3687828,4.8587504,Witte de Withplein,TOURIST_FOUNTAIN,27.11088342345192
51.498605100000006,-0.20079,Mailboxes Etc,SHOP_COPYSHOP,27.11088342345192
51.498797700000004,-0.20008499999999999,Hidden Hearing,SHOP_HEARINGAIDS,27.11088342345192
51.49882720000001,-0.19998470000000002,Artisan du Chocolat,SHOP_DEPARTMENTSTORE,27.129319932501073
49.487492100000004,8.4406493,bistro ONUR,FOOD_PUB,27.129319932501073
43.5922184,1.4404187,Île du Ramier,TRANSPORT_TRAMSTOP,27.14774392099645
51.4982241,-0.2018222,Kensington & Chelsea Pianos,SHOP_MUSIC,27.14774392099645
50.8251674,4.3434989999999996,Le Brumaire,FOOD_BAR,27.14774392099645
50.8962723,14.8066392,Café Filmriss,FOOD_PUB,27.166155414412252
50.896288399999996,14.8065,Stadt-Apotheke,HEALTH_PHARMACY,27.166155414412252
50.8962623,14.806714300000001,Little Panda,FOOD_RESTAURANT,27.166155414412252
50.8962539,14.806829500000001,Lust Bäckerei & Cafe,SHOP_BAKERY,27.166155414412252
51.498143299999995,-0.19789520000000002,Princess Victoria,FOOD_PUB,27.184554438136374
45.0328126,38.9734332,Роспечать,SHOP_NEWSPAPER,27.184554438136374
50.094403799999995,14.452373399999999,Dhaba Beas,FOOD_RESTAURANT,27.202941017470888
51.4987474,-0.2003024,Jai News,SHOP_KIOSK,27.202941017470888
45.0537271,7.676615799999999,Nizza,TRANSPORT_TRAMSTOP,27.2213151776324
45.0261061,38.9758549,Кооперативный рынок,TRANSPORT_TRAMSTOP,27.2213151776324
50.8282396,4.3750332,Serpentin,ACCOMMO_HOTEL,27.23967694375247
45.4708324,9.2064818,riad food garden,FOOD_CAFE,27.258026340878025
59.306406499999994,18.084989800000002,Kanalplan (Hammarby IP),SPORT_SOCCER,27.258026340878025
51.498712899999994,-0.2004111,Cycleopedia,SHOP_BICYCLE,27.27636339397171
44.6506792,10.9221621,Scuderia Ferrari Club,TOURIST_THEATRE,27.29468812791236
45.0331277,38.97325,Бордшоп,SHOP_DIY,27.29468812791236
60.19760940000001,24.943695,Resiina,TOURIST_ART,27.29468812791236
46.15553320000001,-1.147384,Cyclomania,SHOP_MOTORCYCLE,27.313000567495326
46.155541799999995,-1.1473486000000002,Atlantis Vidéo,SHOP_VIDEORENTAL,27.313000567495326
60.1958667,24.944266600000002,Ravintola Antell,FOOD_RESTAURANT,27.313000567495326
46.1554229,-1.1476583,Wok de Pekin,FOOD_RESTAURANT,27.331300737432894
50.827132,4.373777,ULB Faculté d'architecture,EDUCATION_UNIVERSITY,27.349588662354694
51.4982684,-0.2016914,The Blue Lagoon,FOOD_RESTAURANT,27.349588662354694
45.026175,38.9757458,Склад обуви,SHOP_SHOES,27.367864366808014
51.498693599999996,-0.2004891,Shreej,SHOP_KIOSK,27.367864366808014
51.49866760000001,-0.20056429999999997,Cafe Tarte,FOOD_CAFE,27.367864366808014
37.4033474,-5.9890824,019 Parlamento,SHOP_BICYCLE,27.386127875258307
49.4480112,11.088810800000001,Bela Lugosi,FOOD_PUB,27.386127875258307
45.0259471,38.9754368,Магнит,SHOP_SUPERMARKET,27.386127875258307
41.4096722,2.1685361000000003,Jardins del Príncep de Girona,LANDUSE_GRASS,27.386127875258307
37.3810586,-5.9735217,carmen del monte,TOURIST_THEATRE,27.40437921208944
60.174641,24.917773399999998,Poika ja kala,TOURIST_ART,27.40437921208944
50.208857200000004,15.824288300000001,"Obchodní akademie, Střední odborná škola a Jazyková škola s právem státní jazykové zkoušky",EDUCATION_COLLEGE,27.40437921208944
44.6506511,10.9221681,Bar Bamboo,FOOD_CAFE,27.40437921208944
41.4029198,2.1836453999999996,Parque infantil,AMENITY_PLAYGROUND,27.422618401604176
51.8930489,-8.4729273,South Presentation Convent,LANDUSE_GRASS,27.440845468024488
47.506818,19.0377781,"Ital, édesség, vegyiáru bolt",SHOP_CONVENIENCE,27.459060435491967
45.0521385,7.6761417000000005,Gabri,SHOP_ALCOHOL,27.459060435491967
60.171399300000004,24.919891600000003,Queen Sheba,FOOD_RESTAURANT,27.47726332806817
50.0522347,19.9302813,Apartments Zamkowa15,ACCOMMO_HOTEL,27.47726332806817
51.503384600000004,-0.1919618,Patisserie Valerie,FOOD_CAFE,27.47726332806817
37.38429489999999,-5.9824304,103 Avenida Eduardo Dato,SHOP_BICYCLE,27.47726332806817
47.50734779999999,19.0380477,Nemere Patika,HEALTH_PHARMACY,27.49545416973504
44.852146999999995,-0.577558,École maternelle Montgolfier,EDUCATION_NURSERY,27.49545416973504
50.0916674,14.4548835,"Forum Karlín, s.r.o.",TOURIST_ART,27.49545416973504
46.155484200000004,-1.1475061000000002,Centre Iyengar,SPORT_LEISURECENTER,27.513632984395212
44.8458027,-0.5704210999999999,Parc du Quai Louis XVIII,LANDUSE_GRASS,27.513632984395212
41.4031313,2.1837097,Escola Gaia,EDUCATION_SCHOOL,27.513632984395212
41.40375220000001,2.1465555,La Caixa,MONEY_BANK,27.513632984395212
45.4697513,7.878827799999999,Avis,TRANSPORT_RENTALCAR,27.513632984395212
37.4036489,-5.9929862,Torre de los Perdigones,POI_TOWERLOOKOUT,27.513632984395212
52.2914787,-1.5345078,Patisserie Valerie,FOOD_RESTAURANT,27.531799795872413
52.2915329,-1.5345839,Top Man,SHOP_CLOTHES,27.531799795872413
51.5032036,-0.1918433,Ronda,FOOD_RESTAURANT,27.568097504180447
41.3988315,2.2080052,SHELL VILLA OLIMPICA,TRANSPORT_FUEL,27.568097504180447
46.155282899999996,-1.1479501,Aunis Saintonge Santé Service à la personne,SHOP_SUPERMARKET,27.568097504180447
50.05190579999999,19.9314731,Poleski,ACCOMMO_HOTEL,27.586228448267445
50.8603714,4.370001,Musée d'art spontané - Museum voor Spontane Kunst,TOURIST_MUSEUM,27.586228448267445
45.0520506,7.6746377999999975,Piazza Nizza,SHOP_BICYCLE,27.586228448267445
60.1966039,24.9442292,Ravintola 91.1,FOOD_RESTAURANT,27.60434748368452
50.843382399999996,4.3717199,Alexandre Gendebien,TOURIST_ART,27.60434748368452
60.1952946,24.949712899999998,Ääniwalli,TOURIST_NIGHTCLUB,27.60434748368452
51.4981931,-0.2019,Cancom,SHOP_HIFI,27.622454633866266
51.524361299999995,-0.14686770000000002,Park Square Gardens,LANDUSE_GRASS,27.622454633866266
51.4981231,-0.20209370000000001,Al Safi Mini Market,SHOP_CONVENIENCE,27.622454633866266
47.2072851,-1.5647855,Les Docks,FOOD_PUB,27.622454633866266
45.0514359,7.6746206999999975,Nizza,TRANSPORT_SUBWAY,27.622454633866266
50.0928212,14.453228400000002,Holmes Place,SPORT_LEISURECENTER,27.64054992217051
51.472666600000004,7.2169554000000025,Schauspielhaus Bochum Vorverkauf,TOURIST_INFORMATION,27.64054992217051
37.394608700000006,-5.9799727,151 Calle Urquiza,SHOP_BICYCLE,27.65863337187866
50.0715572,14.4436663,U sadu,FOOD_PUB,27.676705006196087
51.498488099999996,-0.2000059,Blockbuster Video Express,SHOP_VIDEORENTAL,27.676705006196087
50.8286827,4.3750834,O Campino,FOOD_RESTAURANT,27.71281292110204
47.50611370000001,19.0376798,SPAR,SHOP_SUPERMARKET,27.71281292110204
47.5061769,19.037712,Рынок ( по воскресеньям ),SHOP_GREENGROCER,27.71281292110204
47.5060796,19.037611300000002,Batthyány téri Vásárcsarnok,SHOP_MARKETPLACE,27.73084924772409
45.031242299999995,38.9746396,Холостядзе,FOOD_CAFE,27.73084924772409
47.50726289999999,19.037218399999997,Pajtás Önkiszolgáló Étterem,FOOD_FASTFOOD,27.748873851023216
37.3798544,-5.9746076,109 Avenida San Francisco Javier,SHOP_BICYCLE,27.748873851023216
55.67580940000001,12.543707300000001,Irma,SHOP_SUPERMARKET,27.76688675382964
51.4851374,-0.1787177,St Andrew's,POW_CHRISTIAN,27.784887978899608
47.506825899999995,19.0379182,Gülbaba török büfé,FOOD_RESTAURANT,27.802877548915692
51.498751399999996,-0.176983,Santander,MONEY_BANK,27.802877548915692
57.6909924,11.9771593,Kemi och Bioteknik,EDUCATION_UNIVERSITY,27.85677655436824
52.3688593,4.8587764,666/999,TOURIST_ART,27.85677655436824
45.4793028,9.2267982,Piazza Leonardo Da Vinci - Politecnico,TRANSPORT_TRAMSTOP,27.87471972953271
53.54909,9.925283,FON,SHOP_HAIRDRESSER,27.892651361962706
55.640137,12.084531,Burgerkilden,FOOD_FASTFOOD,27.91057147390573
53.5490231,9.9253163,Krtoyki Aionyeoe,FOOD_RESTAURANT,27.92848008753788
60.196365899999996,24.943216,Sodexo Pikseli,FOOD_RESTAURANT,27.92848008753788
44.6483445,10.9199773,Largo Aldo Moro,LANDUSE_GRASS,27.92848008753788
47.512238,19.0207926,Mozgássérültek Állami Intézete,AMENITY_PUBLICBUILDING,27.92848008753788
52.38326170000001,4.877758,Giordano,FOOD_RESTAURANT,27.92848008753788
51.47282070000001,7.2174242,JAGO,FOOD_PUB,27.92848008753788
45.0327599,38.9729258,Учебный корпус КубГТУ,EDUCATION_UNIVERSITY,27.92848008753788
48.1186032,-1.6846799,Square Antoine Jagu,LANDUSE_GRASS,28.0
43.6593157,-7.5966394,Autolav Galicia,SHOP_LAUNDRETTE,28.0
52.2915642,-1.534804,Jigsaw,SHOP_CLOTHES,28.0178514522438
52.2915214,-1.5347620000000002,The Entertainer,SHOP_TOYS,28.0178514522438
45.479527399999995,9.226809800000002,Biblioteca Campus Leonardo - Politecnico di Milano,AMENITY_LIBRARY,28.03569153775237
60.1994622,24.9430068,Harjulan Herkku,FOOD_RESTAURANT,28.053520278211074
56.1624238,10.211348800000001,Vennelyst Bodega,FOOD_BAR,28.071337695236398
48.1964008,16.3741342,Botschaft der Republik Estland,POI_EMBASSY,28.08914381037628
45.751149,21.221109600000002,Monumentul Ostașului Necunoscut,TOURIST_MONUMENT,28.08914381037628
52.2913967,-1.5336886,Vinteas,FOOD_CAFE,28.106938645110393
37.40363789999999,-5.9927732,Bar Kiosko Torre de los perdigones,FOOD_BAR,28.12472222085046
37.4034976,-5.9924955,Auto Sport Sevilla,SHOP_BICYCLE,28.178005607210746
47.2370488,6.0163054,Quai Veil Picard,ACCOMMO_CARAVAN,28.178005607210746
51.498156,-0.2020027,Orchid Beauty Salon,SHOP_HAIRDRESSER,28.178005607210746
60.19497560000001,24.9484034,Vallgård,FOOD_RESTAURANT,28.195744359743372
37.3780514,-5.9920484000000025,Escuela de arte,EDUCATION_COLLEGE,28.23118842698621
57.691369200000004,11.975805699999999,Rymdballerina,TOURIST_ART,28.23118842698621
44.8115118,20.455415,Парк Луке Ћеловића,LANDUSE_GRASS,28.23118842698621
60.19665079999999,24.9429214,Jämsänkatu,TRANSPORT_TRAMSTOP,28.23118842698621
47.506150500000004,19.0379733,Pizza EATaliano,FOOD_RESTAURANT,28.24889378365107
52.290923,-1.5343982,Sports Direct,SHOP_MOTORCYCLE,28.26658805020514
47.20699570000001,-1.5648795,Machines de l'Île,SHOP_BICYCLE,28.26658805020514
47.5069427,19.0377539,Batthyány tér,TRANSPORT_STATION,28.33725463060951
43.59712860000001,1.4568051000000002,L'instant,SHOP_HAIRDRESSER,28.33725463060951
59.3812907,13.5030034,Harrys,FOOD_PUB,28.33725463060951
53.5492571,9.925203199999999,Taverna Kreta,FOOD_RESTAURANT,28.35489375751565
51.5061653,-0.1985971,Hill Dry Cleaners,SHOP_LAUNDRETTE,28.35489375751565
55.6414085,12.0839613,Café Satchmo,FOOD_CAFE,28.35489375751565
59.316924699999994,18.090293799999998,Ersta Terrass,FOOD_RESTAURANT,28.372521918222212
47.50601320000001,19.037966600000004,Steamhouse Cafe,FOOD_CAFE,28.372521918222212
51.5024533,-0.1928567,Japanese Knife Co,SHOP_CONVENIENCE,28.390139133156783
47.239246200000004,6.0153584,Arènes,TOURIST_RUINS,28.407745422683586
51.5029781,-0.1935245,The Elephant and Castle,FOOD_PUB,28.442925306655784
47.2257883,39.7158008,Ростовский областной музей изобразительных искусств,TOURIST_MUSEUM,28.478061731796284
51.4632905,7.013304,Lotus,SHOP_KIOSK,28.49561369755001
51.5021567,-0.1879698,Spaghetti House,FOOD_RESTAURANT,28.49561369755001
45.05165529999999,7.6784966,Schenone Sport,SHOP_CLOTHES,28.53068523537421
41.6694464,-3.6818809999999997,Restaurante El 51 del Sol,FOOD_RESTAURANT,28.548204847240395
45.0334119,38.9733158,Сабвэй,FOOD_FASTFOOD,28.548204847240395
51.5021332,-0.1880613,Roadster California Burger,FOOD_RESTAURANT,28.548204847240395
47.211639,-1.5442545,Columbus Café&Co,FOOD_CAFE,28.548204847240395
51.5021467,-0.1881326,D&A,SHOP_DEPARTMENTSTORE,28.5657137141714
55.7101421,13.1925717,Allhelgonakyrkan,SHOP_BICYCLE,28.5657137141714
60.196572100000004,24.9420343,Factory - Vallila,FOOD_RESTAURANT,28.583211855912904
52.088476,4.2766154,Bagels & Beans,FOOD_CAFE,28.600699292150182
51.49884760000001,-0.1775755,Imperial College Union Shop,SHOP_CONVENIENCE,28.600699292150182
53.5489856,9.9256823,Lisboa,FOOD_CAFE,28.618176042508374
45.4498274,9.167408199999999,Bikemi 158 Naviglio G.Valenza,SHOP_BICYCLE,28.63564212655271
51.5106008,7.089427199999999,Justizvollzugsanstalt (JVA),AMENITY_PRISON,28.63564212655271
51.485170399999994,-0.1782192,Chelsea Pre-Prep,EDUCATION_SCHOOL,28.670542373662897
41.4007138,2.2090612000000003,Bambú Beach Bar,FOOD_BAR,28.670542373662897
51.502233399999994,-0.1879193,Best Western Seraphine Kensington Garden,ACCOMMO_HOTEL,28.687976575562104
51.4524447,-0.9657764999999999,Zoar Strict Baptist Chapel,POW_CHRISTIAN,28.687976575562104
41.4008552,2.2086695,Eurohotel Diagonal Port,ACCOMMO_HOTEL,28.687976575562104
60.194922,24.9477118,Clippany Hair,SHOP_HAIRDRESSER,28.687976575562104
51.5289459,-0.07023380000000001,Brawn,FOOD_RESTAURANT,28.70540018881465
59.38079010000001,13.503063699999998,Tingvallastaden,POI_SUBURB,28.70540018881465
47.238934,6.033193799999999,Le D'Calé,FOOD_PUB,28.722813232690143
53.348895999999996,-6.2419980000000015,SV Fitness,SPORT_LEISURECENTER,28.722813232690143
47.5070338,19.0380298,Posta,AMENITY_POSTOFFICE,28.74021572639983
40.4827158,-3.3588688,Leo Leo,EDUCATION_SCHOOL,28.757607689096808
41.4021634,2.1837978,Àgora,SHOP_BOOK,28.77498913987632
41.40029129999999,2.2088137999999997,Plaça Rafael Campalans,TOURIST_FOUNTAIN,28.77498913987632
51.913844,4.446773,Sfinx,FOOD_CAFE,28.77498913987632
51.7598591,19.4678215,Żabka,SHOP_CONVENIENCE,28.82707061079915
51.4988883,-0.176927,Imperial College London,EDUCATION_UNIVERSITY,28.82707061079915
51.499914399999994,-0.17800970000000002,Imperial Cinema,TOURIST_CINEMA,28.82707061079915
51.52989229999999,-0.07130639999999999,Clutch,FOOD_RESTAURANT,28.844410203711917
51.5019119,-0.1883035,Iranian Embassy,POI_EMBASSY,28.844410203711917
57.6902804,11.974985,Teknisk Fysik,EDUCATION_UNIVERSITY,28.861739379323627
41.4012165,2.1850065,Churrería,SHOP_BAKERY,28.861739379323627
41.4010578,2.2091907,Jardins de Jaime Gil de Biedma,SHOP_FLORIST,28.861739379323627
44.838407399999994,-0.5628662,Pont de Pierre,TOURIST_ATTRACTION,28.861739379323627
50.1124745,8.6560864,Hessischer Hof,ACCOMMO_HOTEL,28.879058156387305
51.483591600000004,-3.1702826,"West Building, Queens Buildings",EDUCATION_UNIVERSITY,28.896366553599783
60.193254,24.9436693,THAI Orchid-Konepaja,FOOD_RESTAURANT,28.930952282978865
52.088669700000004,4.2764999,Zee Zand Zilver,SHOP_JEWELRY,28.930952282978865
51.9576188,7.619165700000001,Kruse Baimken,FOOD_BIERGARTEN,28.930952282978865
59.3448316,18.0737865,Valhallavägen 84,SHOP_BICYCLE,28.98275349237888
55.641220999999994,12.0840985,Restart,FOOD_FASTFOOD,28.98275349237888
57.6902951,11.9758023,Fysik,EDUCATION_UNIVERSITY,28.98275349237888
55.641212,12.083964,Restaurant Bryggergården,FOOD_RESTAURANT,28.98275349237888
47.2064092,-1.5728466,Gare Maritime,SHOP_BICYCLE,29.0
59.3447966,18.0730667,Skylink Travels,SHOP_DEPARTMENTSTORE,29.0
53.3490574,-6.2424258,Fresh,SHOP_CONVENIENCE,29.017236257093817
53.349056999999995,-6.2423871,Insomnia,FOOD_CAFE,29.017236257093817
49.5955153,17.2660641,Adam,SHOP_CONVENIENCE,29.017236257093817
59.3803238,13.5038489,Bergqvist skor,SHOP_SHOES,29.0516780926679
50.057069899999995,19.9248755,Słodki Kącik,SHOP_CONFECTIONERY,29.086079144497965
51.7793875,19.4439827,New Look,SHOP_CLOTHES,29.086079144497965
45.7379157,7.3266383,PUBurger,FOOD_RESTAURANT,29.12043955712207
52.098263700000004,5.1145122,Meneer Peer,FOOD_RESTAURANT,29.12043955712207
51.5021134,-0.1877193,Goat Tavern,FOOD_PUB,29.12043955712207
60.1736219,24.8023365,Omnia,EDUCATION_SCHOOL,29.154759474226502
45.4798445,9.2276494,Cesare Chiodi,EDUCATION_UNIVERSITY,29.171904291629644
52.0883901,4.2767015,Interieur Design Ton Magdelijns,SHOP_DEPARTMENTSTORE,29.171904291629644
51.4731415,7.2180345,"Fräulein Coffea - zauberhaftes, kleines Café",FOOD_CAFE,29.171904291629644
51.779402399999995,19.444194600000003,Deichmann,SHOP_SHOES,29.171904291629644
45.4746149,9.2271724,"Dipartimento di Scienze Farmaceutiche ""Pietro Pratesi""",EDUCATION_UNIVERSITY,29.18903903865285
45.48946970000001,9.205107199999999,Ristorante Pizzeria Al Vesuvio,FOOD_RESTAURANT,29.18903903865285
41.67061629999999,-3.6805779000000003,El Puerto II,FOOD_BAR,29.206163733020468
45.489332899999994,9.2048451,Buonarroti Gioielli,SHOP_JEWELRY,29.206163733020468
51.4998673,-0.1795734,Bulgarian Embassy,POI_EMBASSY,29.206163733020468
51.2245392,4.421968,Superette Saifan,SHOP_SUPERMARKET,29.223278392404914
41.3934842,2.1892867000000003,Boxes,SHOP_CARREPAIR,29.24038303442689
43.6024836,3.9038901,240 Th. Avenue,SHOP_HAIRDRESSER,29.24038303442689
59.38128190000001,13.503271300000002,Pressbyrån,SHOP_CONVENIENCE,29.27456233660889
51.4731143,7.2177417,Fleischwaren Kruse,SHOP_BUTCHER,29.27456233660889
51.5000333,-0.17881760000000002,Holy Trinity,POW_CHRISTIAN,29.27456233660889
43.3623978,-8.406200199999999,K-tuin,SHOP_COMPUTER,29.29163703175362
51.472986,7.217341999999999,GLS Bank,MONEY_BANK,29.29163703175362
52.2907567,-1.5326452,The Sausage,FOOD_PUB,29.29163703175362
60.194643000000006,24.9480721,Valkka,FOOD_RESTAURANT,29.308701779505693
52.088276,4.2763634,The Old Jazz,FOOD_PUB,29.308701779505693
55.687799399999996,12.550451400000002,Blågårds Skole,EDUCATION_SCHOOL,29.32575659723036
46.0712369,11.1148367,Sant'Apollinare,POW_CHRISTIAN,29.393876913398138
37.9881323,-1.1221777,"Colegio ""Parra""",EDUCATION_SCHOOL,29.393876913398138
51.43797960000001,0.37373629999999997,The Waterloo,FOOD_PUB,29.393876913398138
51.224494799999995,4.421851,Sint-Gummarus,TRANSPORT_TRAMSTOP,29.410882339705488
43.3626406,-8.406190800000001,Marco Aldany,SHOP_HAIRDRESSER,29.427877939124322
55.6666235,12.5390806,Galleri Nicolai Wallner,TOURIST_MUSEUM,29.461839725312466
51.1176209,17.0314235,Ruch,SHOP_KIOSK,29.461839725312466
50.864887599999996,4.3739436,Dépot Schaerbeek - Stelplaats Schaarbeek,TRANSPORT_TRAMSTOP,29.512709126747406
51.4839902,-0.1779177,Park Walk Primary School,EDUCATION_SCHOOL,29.512709126747406
59.3164443,18.091364399999996,Ersta kyrka,POW_CHRISTIAN,29.512709126747406
52.5218968,13.379956699999996,Agaciak und Merz,SHOP_HAIRDRESSER,29.512709126747406
59.31649670000001,18.0911543,Ersta sjukhus,HEALTH_HOSPITAL,29.546573405388315
51.7796818,19.444026899999997,Stacja ładowania pojazdów elektrycznych,SHOP_DEPARTMENTSTORE,29.563490998188964
57.690248600000004,11.9755278,Fysikgården,LANDUSE_GRASS,29.597297173897484
50.1119613,8.6556016,Friedrich-Ebert-Anlage,LANDUSE_GRASS,29.614185789921688
50.1017076,8.660540699999999,Gutleutviertel,POI_SUBURB,29.614185789921688
53.349048399999994,-6.2421589000000015,Docklands Dental,HEALTH_DENTIST,29.614185789921688
45.489261,9.205533599999999,Sauna Metro club Milano Centrale,TOURIST_NIGHTCLUB,29.64793416074719
50.0720338,14.4450201,Thai's asian food shop,SHOP_CONVENIENCE,29.64793416074719
52.406850799999994,16.9107292,Sheraton,ACCOMMO_HOTEL,29.64793416074719
50.056822600000004,19.924998600000002,Żonglerka,FOOD_CAFE,29.66479394838265
52.4073953,16.9102031,Księgarnia Adama Mickiewicza,SHOP_BOOK,29.681644159311663
51.7598737,19.4680082,Złota,HEALTH_PHARMACY,29.698484809834994
45.473870700000006,9.2294899,"Dipartimento di Scienze della Terra ""Ardito Desio""",EDUCATION_UNIVERSITY,29.732137494637012
50.4593414,4.8659134,Visagiste,SHOP_HAIRDRESSER,29.732137494637012
37.397360299999995,-6.0021420999999995,Biblioteca Felipe González,AMENITY_PUBLICBUILDING,29.76575213227443
49.5956301,17.266144,Wok to go,FOOD_RESTAURANT,29.782545223670866
52.0883114,4.2762949,Betjeman & Barton,SHOP_DEPARTMENTSTORE,29.79932885150268
39.4636691,-0.3719267000000001,Supermercat D'omar,SHOP_SUPERMARKET,29.816103031751148
52.374640299999996,4.6278445999999995,Lorentz,TOURIST_ART,29.8496231131986
50.843021500000006,4.3706622,I Love Sandwiches,FOOD_FASTFOOD,29.86636904613616
53.349243200000004,-6.2418961,IFSC Dental Care,HEALTH_DENTIST,29.899832775452108
41.3732666,2.146359,Kikiriki,FOOD_RESTAURANT,29.916550603303186
52.088354100000004,4.276769799999999,Avondwinkel Twinny's,SHOP_CONVENIENCE,29.916550603303186
41.40808870000001,2.212054,Vincci Marítimo,ACCOMMO_HOTEL,29.916550603303186
45.0510018,7.6780345999999975,El pan d'na volta,SHOP_BAKERY,29.93325909419153
51.4634844,-2.5788428,Bubble Laundry,SHOP_LAUNDRETTE,29.93325909419153
50.8638415,4.3761738,L'Espérance,FOOD_CAFE,29.966648127543394
39.4749852,-0.38799179999999994,020 Ferran el Catòlic - Quart,SHOP_BICYCLE,29.9833287011299
39.472666,-0.3672284,Mussacti,SHOP_CLOTHES,29.9833287011299
51.4381511,0.37375759999999997,DKB General Stores,SHOP_CONVENIENCE,29.9833287011299
59.34390079999999,18.0742664,Tjeckiens ambassad,POI_EMBASSY,30.0
59.379065000000004,13.507542,Apartment Hotel Berling,ACCOMMO_HOTEL,30.01666203960727
50.864505799999996,4.3734297,Bar du gaspi,FOOD_CAFE,30.01666203960727
49.5955277,17.266567300000002,Lékárna U svatého Gorazda,HEALTH_PHARMACY,30.01666203960727
49.5958564,17.266751,Vrchní soud,AMENITY_COURT,30.01666203960727
49.595467299999996,17.266772800000002,Ovoce - Zelenina,SHOP_GREENGROCER,30.01666203960727
49.5954115,17.2669572,Drápal & Novák,SHOP_DEPARTMENTSTORE,30.03331483536241
51.483257,-0.178034,Chelsea Bun,FOOD_CAFE,30.049958402633443
52.091074299999995,-1.9382221999999998,The Warehouse,SHOP_DEPARTMENTSTORE,30.066592756745816
52.09071210000001,-1.9384363000000002,The Dental Practice,HEALTH_DENTIST,30.066592756745816
53.3492335,-6.2416408,BizPOST etc.,AMENITY_POSTOFFICE,30.08321791298265
51.2261149,4.418296700000001,São João,SHOP_CONFECTIONERY,30.099833886584825
50.864119099999996,4.3748457,Pharmacie Sikier,HEALTH_PHARMACY,30.116440692751194
51.4972416,-0.2006624,Edwardes Square,SHOP_FLORIST,30.14962686336267
47.5080723,19.0384034,Műhely Kávézó és Galéria,FOOD_CAFE,30.166206257996716
53.3492692,-6.2421873,Excel,SHOP_LAUNDRETTE,30.18277654557314
55.71168340000001,9.5365717,Bone's Vejle,FOOD_RESTAURANT,30.199337741083003
49.5955843,17.266323,La Bella,FOOD_CAFE,30.23243291566195
37.37889420000001,-5.976126,Universidad de Sevilla - Campus Ramón y Cajal,EDUCATION_UNIVERSITY,30.23243291566195
47.207315799999996,-1.5716573,40 Pieds,FOOD_RESTAURANT,30.23243291566195
60.4475627,22.2816702,Kiertokaluste,SHOP_DEPARTMENTSTORE,30.23243291566195
38.96411370000001,-0.18456,El Buen Gusto,FOOD_RESTAURANT,30.248966924508352
39.4723362,-0.3679882,Armarios Valencia,SHOP_DEPARTMENTSTORE,30.248966924508352
51.1177305,17.0310443,Munia,SHOP_BUTCHER,30.265491900843116
39.4723693,-0.36789920000000004,Randstad,TOURIST_NIGHTCLUB,30.298514815086232
52.38293170000001,4.877674400000001,SuriKitchen,FOOD_FASTFOOD,30.315012782448235
51.2264079,4.4187514000000006,Aldi,SHOP_SUPERMARKET,30.315012782448235
45.738422,7.3251299,Pantofoleria di Carrel C.,SHOP_SHOES,30.36445290137795
55.7117173,9.5361867,Kebab House,FOOD_FASTFOOD,30.36445290137795
37.4033446,-5.9880344,023 Parlamento,SHOP_BICYCLE,30.380915061926625
50.8636589,4.374516799999999,Le Barboteur,FOOD_BAR,30.397368307141328
41.3927852,2.1900357,El Pla de la Nostàlgia,TOURIST_ART,30.413812651491103
60.1943504,24.9476088,Aschan Coffee & Deli,FOOD_CAFE,30.413812651491103
37.398739,-5.981597,Burguer King,FOOD_FASTFOOD,30.43024810940588
47.2073854,-1.5715031000000002,Romy,SHOP_FLORIST,30.44667469527666
50.8640336,4.3749988,Haricot Magique,FOOD_CAFE,30.44667469527666
52.090545299999995,-1.9387276000000002,First React,SHOP_COMPUTER,30.44667469527666
51.5288185,-0.07012189999999999,MOSAIC DEL SUR,SHOP_DEPARTMENTSTORE,30.463092423455638
51.224869700000006,4.4220251,DAM Market,SHOP_SUPERMARKET,30.463092423455638
47.141632200000004,7.2520743,Bonadei,SHOP_CONVENIENCE,30.49590136395381
52.4073956,16.911193100000002,Concordia Taste,FOOD_RESTAURANT,30.49590136395381
50.8650561,4.3730255,Athénée royal Alfred Verwée (Site Sainte-Marie),EDUCATION_SCHOOL,30.49590136395381
41.392632,2.1889429,La Caputxeta Vermella,AMENITY_PLAYGROUND,30.49590136395381
51.4845634,-0.1838,Chelsea Funeral Directors,SHOP_DEPARTMENTSTORE,30.51229260478471
50.1019334,8.6604061,Mr. Lee,FOOD_RESTAURANT,30.51229260478471
47.5083984,19.0387891,Novotel,ACCOMMO_HOTEL,30.528675044947487
51.226168,4.4182690000000004,Slagerij Sint-Jans,SHOP_BUTCHER,30.56141357987225
60.19426800000001,24.9477717,Subway,FOOD_FASTFOOD,30.577769702841312
39.4724845,-0.3676268,Fuji,FOOD_RESTAURANT,30.577769702841312
50.8637236,4.375536,Vase Bacchanale - Vaas der Bacchanten,TOURIST_ART,30.59411708155671
51.7625993,19.4676267,Kilińskiego - Nawrot,TRANSPORT_TRAMSTOP,30.61045573002793
60.1657333,24.918831899999997,Ortodoksinen hautausmaa,BARRIER_BLOCKS,30.62678566222711
44.9472244,34.09436229999999,Чайный пьяница,FOOD_CAFE,30.62678566222711
37.398374600000004,-5.9817550000000015,044 Ronda Capuchinos,SHOP_BICYCLE,30.659419433511786
36.5964947,-4.5340169999999995,Farmacia Zarzuelo,HEALTH_PHARMACY,30.659419433511786
37.4009485,-5.983356099999999,Jardín de Capuchinos,LANDUSE_GRASS,30.659419433511786
47.2067047,-1.5716645,Maillé-Brézé,TOURIST_MUSEUM,30.708305065568176
37.401399100000006,-5.9823247,Yebra,FOOD_RESTAURANT,30.708305065568176
44.9469304,34.0952417,Везунчик,SHOP_CONVENIENCE,30.724582991474428
52.0883182,4.276840099999999,Hair Topic,SHOP_HAIRDRESSER,30.724582991474428
43.60533579999999,1.4313514999999999,Manufacture des Tabacs,EDUCATION_UNIVERSITY,30.724582991474428
41.3882773,2.1358855,Hidden Cafe Barcelona,FOOD_CAFE,30.7408522978788
39.4724145,-0.36782709999999996,Triodos Bank,MONEY_BANK,30.7408522978788
59.379440100000004,13.503989,Roffes i City,FOOD_RESTAURANT,30.7408522978788
51.463512200000004,-0.07170939999999999,Amott Road Baptist Church,POW_CHRISTIAN,30.7408522978788
51.4891759,-0.1144675,Duchy Arms,FOOD_PUB,30.757112998459398
59.37956970000001,13.503997199999999,Sibylla,FOOD_FASTFOOD,30.77336510685824
53.5476821,9.927261,atelier gezeiten,SHOP_JEWELRY,30.77336510685824
37.3969267,-5.9813598,San Juan Bosco,TOURIST_MEMORIAL,30.77336510685824
51.4652019,-0.066724,Delta Tavern,FOOD_RESTAURANT,30.77336510685824
43.5966503,1.455673,Sabatier - Port Saint-Sauveur,SHOP_BICYCLE,30.77336510685824
59.343174,18.0783428,Spice of India,FOOD_RESTAURANT,30.789608636681304
41.390608,2.1977377999999996,Consum,SHOP_SUPERMARKET,30.789608636681304
55.77101920000001,12.502526300000001,Bahne,SHOP_DEPARTMENTSTORE,30.789608636681304
55.7708922,12.50268,Cafe Amalie,FOOD_CAFE,30.789608636681304
47.225854299999995,-1.5475317,Restaurant universitaire,FOOD_RESTAURANT,30.805843601498733
37.3981215,-5.9821472,Aintas,SHOP_HAIRDRESSER,30.822070014844886
55.6393606,12.0851972,Gustav Wied's Vinstue,FOOD_BAR,30.886890422961002
55.63907679999999,12.0851931,AH-Vin,SHOP_ALCOHOL,30.903074280724894
37.378831700000006,-5.9771475999999994,La Brioche,FOOD_RESTAURANT,30.903074280724894
55.77190160000001,12.501462400000001,Røde Korsbutik,SHOP_DEPARTMENTSTORE,30.919249667480607
55.77135,12.50211,Louis Nielsen,SHOP_DEPARTMENTSTORE,30.919249667480607
47.5085659,19.079924,Akta Papír-Írószer,SHOP_COPYSHOP,30.93541659651604
41.388965999999996,2.19917,455 - (PK) AV. DEL LITORAL 34,SHOP_BICYCLE,30.96772513440405
55.7116134,9.5357199,Bogdrømme,SHOP_BOOK,30.96772513440405
51.2263411,4.4177446,Colombus,FOOD_PUB,30.96772513440405
55.711532999999996,9.536182,Paradiso Kebab,FOOD_FASTFOOD,30.96772513440405
51.5047534,-0.1939014,Reindeer Antiques,SHOP_DEPARTMENTSTORE,30.98386676965934
55.7712554,12.502787199999998,Jardex,SHOP_CLOTHES,30.98386676965934
55.7715634,12.502885699999998,Blomsterbergs Café,FOOD_CAFE,30.98386676965934
55.77193000000001,12.50186,Irma,SHOP_SUPERMARKET,31.0
55.77153979999999,12.5024266,Svane Apotek,HEALTH_PHARMACY,31.0
52.0959567,5.1089895,Rose&Vanilla,SHOP_BAKERY,31.0
45.7384174,7.3247822,Mc Gregor,SHOP_CLOTHES,31.0
55.7718657,12.502058400000001,Bog & Idé,SHOP_BOOK,31.0
55.7716853,12.501666499999999,Aji,FOOD_RESTAURANT,31.0
55.771657499999996,12.5022186,Danske Bank,MONEY_BANK,31.0
52.3775713,4.9071538,Choux,FOOD_RESTAURANT,31.01612483854165
55.772183,12.501018,UNUR,FOOD_FASTFOOD,31.048349392520052
39.4749435,-0.38860959999999994,Hernandez Gimenez,HEALTH_PHARMACY,31.048349392520052
55.63864399999999,12.0857133,Cykelkælderen,SHOP_BICYCLE,31.06444913401813
55.63890429999999,12.085637400000001,Garbos,TOURIST_NIGHTCLUB,31.06444913401813
55.772139100000004,12.5031898,Blomsterhaven,LANDUSE_GRASS,31.06444913401813
55.63881,12.085444,Hedins Mad og Smil,FOOD_FASTFOOD,31.06444913401813
51.2262162,4.4182459000000005,'t Gazetje,SHOP_NEWSPAPER,31.096623610932426
51.2262934,4.417703599999999,A Minhota,FOOD_PUB,31.11269837220809
45.48909929999999,9.205705300000002,Erotica 92,SHOP_DEPARTMENTSTORE,31.11269837220809
43.60571510000001,1.4316556999999999,Desserte Bibliobus Amidonniers,AMENITY_LIBRARY,31.128764832546764
51.2268664,4.4182633000000004,Monkey King,FOOD_RESTAURANT,31.128764832546764
37.39849,-5.9805082,Residencia Gerón,AMENITY_PUBLICBUILDING,31.128764832546764
55.638756799999996,12.085531,Klippekælderen,SHOP_HAIRDRESSER,31.144823004794873
50.103227200000006,8.657392300000001,Hafenstraße,TRANSPORT_TRAMSTOP,31.192947920964446
47.6858705,17.639909399999997,Pa-Ro Kerékpár,SHOP_BICYCLE,31.224989991991986
47.5075855,19.0835228,Retró Söröző,FOOD_PUB,31.240998703626612
45.4750026,9.228181,Istituto di Medicina Legale,EDUCATION_UNIVERSITY,31.272991542223775
37.398073,-5.9822693,La Segunda Vera,SHOP_LAUNDRETTE,31.272991542223775
60.19423489999999,24.9478678,Teraset,SHOP_COMPUTER,31.272991542223775
37.397315,-5.9817145,EI Santisima Trinidad,EDUCATION_SCHOOL,31.28897569432403
52.3828461,4.8774504,Blokker Amsterdam,SHOP_CONVENIENCE,31.304951684997054
37.3798097,-5.9774959,Los 100 montaditos,FOOD_RESTAURANT,31.304951684997054
41.4196072,2.190748,Pista Esportiva Municipal La Sagrera,SPORT_LEISURECENTER,31.304951684997054
45.060615500000004,7.6923708,Mazzini,TRANSPORT_TRAMSTOP,31.336879231984803
51.4846367,-0.1836544,Richer Sounds,SHOP_HIFI,31.336879231984803
51.51903239999999,-0.1829557,Novotel London Paddington,ACCOMMO_HOTEL,31.336879231984803
52.382554999999996,4.8778677,Dirk van den Broek,SHOP_SUPERMARKET,31.336879231984803
51.484700200000006,-0.18359920000000002,cyclopedia,SHOP_BICYCLE,31.336879231984803
50.6225907,3.0723724,Mémorial aux victimes des 18 ponts,TOURIST_MEMORIAL,31.336879231984803
41.389278499999996,2.1987097,Estany de Cobi,TOURIST_ART,31.352830813181768
44.9465541,34.095767200000004,Генбанк,MONEY_BANK,31.352830813181768
51.226946500000004,4.4178637,Apotheek Snoeck,HEALTH_PHARMACY,31.352830813181768
47.5076889,19.0796163,MentesNasi,SHOP_CONFECTIONERY,31.352830813181768
41.422810999999996,2.185171,247 - Olesa 43,SHOP_BICYCLE,31.368774282716245
38.964143799999995,-0.1843685,Foc i Flames,FOOD_RESTAURANT,31.368774282716245
47.5078436,19.0783406,Kapitány cukrászda,SHOP_DEPARTMENTSTORE,31.40063693621516
45.0507418,7.6778667,El pan d'na Volta,SHOP_BAKERY,31.416556144810013
51.763416299999996,19.4671734,Kilińskiego - Nawrot,TRANSPORT_TRAMSTOP,31.416556144810013
47.2070566,-1.5731161,Gare Maritime,TRANSPORT_TRAMSTOP,31.416556144810013
47.2070842,-1.5731301000000002,Gare Maritime,TRANSPORT_TRAMSTOP,31.416556144810013
55.711835,9.533019,City Pizza,FOOD_FASTFOOD,31.432467291003427
59.37948299999999,13.5044764,Restaurang Frost,FOOD_RESTAURANT,31.44837038703277
41.4231071,2.1852187,CaixaBank,MONEY_BANK,31.46426544510455
50.10169860000001,8.6599185,La Gazella,FOOD_RESTAURANT,31.46426544510455
37.4008471,-5.9818569,Cruz Roja-Capuchinos,POI_HAMLET,31.46426544510455
44.35856,11.716291199999999,Farmacia della stazione,HEALTH_PHARMACY,31.48015247739439
47.5083811,19.0794026,Coop,SHOP_CONVENIENCE,31.496031496047245
44.6439903,10.9201383,Viale Vittorio Veneto 95,SHOP_BICYCLE,31.496031496047245
50.1012208,8.6601578,Lang-Wiener,HEALTH_DOCTORS,31.543620591175014
50.1016299,8.659770800000002,Café Frankfurt,SHOP_BAKERY,31.543620591175014
39.9837923,-0.0425886,Colegio Escuelas Pías,EDUCATION_SCHOOL,31.559467676119
50.101678299999996,8.659858900000001,Inal,SHOP_DEPARTMENTSTORE,31.57530680769389
55.664114299999994,12.5455283,Bodil,FOOD_RESTAURANT,31.57530680769389
43.6027593,3.9039669999999997,Mondial 98,TRANSPORT_TRAMSTOP,31.59113799786263
37.3791499,-5.9775708,IES Murillo,EDUCATION_SCHOOL,31.59113799786263
47.5083424,19.079504800000002,Piroska Vendéglő,FOOD_RESTAURANT,31.59113799786263
39.472084100000004,-0.3684614,Puerta del Mar,TOURIST_MONUMENT,31.654383582688823
39.4720842,-0.36845559999999994,Plaça Porta de la Mar,SHOP_FLORIST,31.654383582688823
50.101445700000006,8.6599163,Malek,HEALTH_DOCTORS,31.68595903550972
51.226962799999995,4.4182863,Crumbles & Beans,FOOD_CAFE,31.68595903550972
60.1735294,24.9189046,Töölön Service,FOOD_FASTFOOD,31.68595903550972
41.3891934,2.1981874,Parc del Port Olímpic,LANDUSE_GRASS,31.73326330524486
50.1019482,8.6591546,Trinkhalle,SHOP_KIOSK,31.73326330524486
45.0782074,7.682274599999999,Etnic Market,SHOP_SUPERMARKET,31.764760348537177
60.4476953,22.2814932,Radbar Turku,FOOD_PUB,31.79622619116929
37.379742,-5.977282,Tapas Viapol,FOOD_RESTAURANT,31.84336665618132
39.991881799999994,-0.0344114,Parroquia Nuestra Señora del Carmen,POW_CHRISTIAN,31.85906464414798
51.2251134,4.4218617,Sint-Gummarus,TRANSPORT_TRAMSTOP,31.874754901018452
50.10170220000001,8.659322300000001,Nollywood,FOOD_RESTAURANT,31.874754901018452
51.528369,-0.0632709,Elizabeth Selby Infant School,EDUCATION_SCHOOL,31.874754901018452
47.508149700000004,19.079148899999996,CatCafe,FOOD_CAFE,31.874754901018452
47.5082908,19.080561,Molnár Presszó,FOOD_CAFE,31.89043743820395
47.207600299999996,-1.5725557,Le planning familial 44,AMENITY_PUBLICBUILDING,31.906112267087632
37.3805805,-5.9880203000000005,Parque Infantil,AMENITY_PLAYGROUND,31.906112267087632
41.3735903,2.1319703999999997,MOT,SHOP_BICYCLE,31.921779399024736
51.22564660000001,4.4221687,Drie Sterren,SHOP_BAKERY,31.921779399024736
51.5192755,-0.1837414,Pergola Paddington Central,FOOD_BAR,31.937438845342626
51.8956273,-2.0827379,Mondo Experience Hair,SHOP_HAIRDRESSER,31.937438845342626
44.4972498,11.362312300000001,Apifa Minimarket,SHOP_CONVENIENCE,31.953090617340923
41.3741192,2.1306258,Lidl,SHOP_SUPERMARKET,31.953090617340923
37.3795626,-5.9767867999999975,supercorner,FOOD_PUB,31.953090617340923
59.378907299999995,13.5043883,The Leprechaun Pub,FOOD_PUB,31.968734726291558
59.307487800000004,18.0850977,Stora Blecktornet,FOOD_CAFE,31.968734726291558
59.3787186,13.504394199999998,Danske Bank,MONEY_BANK,31.968734726291558
39.4774686,-0.388219,Jardín de las Hespérides,LANDUSE_GRASS,32.0
50.8426751,4.3707885000000015,Église Saint-Joseph - Sint-Jozefkerk,POW_CHRISTIAN,32.01562118716424
50.1032075,8.657419500000001,Hafenstraße,TRANSPORT_TRAMSTOP,32.03123475609393
41.4082974,2.1511479,IberCaja,MONEY_BANK,32.04684071792413
52.0966236,5.1092075999999995,Hello B&B,ACCOMMO_HOTEL,32.07802986469088
51.2275728,4.418722,Bistrot du Nord,FOOD_RESTAURANT,32.07802986469088
50.6224838,3.0719492,Les 18 ponts,FOOD_BAR,32.09361307176243
52.08805529999999,4.276789900000002,La Vie Bohème,SHOP_DEPARTMENTSTORE,32.109188716004645
41.42022670000001,2.1895031000000005,423 - Carrer d'Hondures 32,SHOP_BICYCLE,32.12475680841802
37.400454499999995,-5.9827262,Hospital Victoria Eugenia,HEALTH_HOSPITAL,32.14031735997639
39.4721037,-0.3684545,Porta de la Mar,TOURIST_MONUMENT,32.14031735997639
53.338370999999995,-6.243188,Oil Can Harry's,FOOD_PUB,32.15587038162705
55.7724554,12.5032866,Assistens Kirkegård,BARRIER_BLOCKS,32.171415884290816
50.1023731,8.658812699999999,LIttle Shanghai,FOOD_RESTAURANT,32.18695387886216
52.088104799999996,4.2766946,Hudson Bar & Kitchen,FOOD_RESTAURANT,32.18695387886216
41.3738539,2.1309876,Mercat Provisional de Sants,SHOP_DEPARTMENTSTORE,32.2335229225724
40.4196184,-3.6820957,Monumento a los Hermanos Álvarez Quintero,TOURIST_MONUMENT,32.2490309931942
41.3732941,2.1479279,Restaurante Barranco,FOOD_RESTAURANT,32.2490309931942
46.77691779999999,4.8570074,Gestion Logistique et Transport,EDUCATION_SCHOOL,32.2490309931942
52.0881954,4.277129,La Joy,SHOP_HAIRDRESSER,32.264531609803356
55.7721571,12.5047521,Paradis Is,FOOD_ICECREAM,32.280024783137954
52.0961704,5.1083918,Ekoplaza,SHOP_SUPERMARKET,32.280024783137954
52.6563161,-8.632097,Charlie Malone's,FOOD_PUB,32.280024783137954
47.5065354,19.0801908,Haziko - Agri Kulti,FOOD_RESTAURANT,32.31098884280702
51.5197266,-0.1798371,Abi Dental,HEALTH_DENTIST,32.357379374726875
47.5084431,19.0804648,Damjanich Gyógyszertár,HEALTH_PHARMACY,32.372828112477286
41.42001320000001,2.1902352,Espai Àbac del Espai 30 (Ateneu Sagrerenc),TOURIST_THEATRE,32.372828112477286
41.41998140000001,2.1903650000000003,Espai Ión del Espai 30 (Ateneu Sagrerenc),TOURIST_THEATRE,32.372828112477286
41.3889495,2.1982638,Commemoració de la Inauguració de la Vila Olímpica,TOURIST_ART,32.38826948140329
