{"type": "FeatureCollection", "features": [
{"type": "Feature", "geometry": {"type": "Point", "coordinates": [8.5165256, 47.3865664]}, "properties": {"comparison": 2.0, "Name": "Tonhalle Maag", "type": "TOURIST_THEATRE", "coord1": 47.3865664, "coord2": 8.5165256}}
,{"type": "Feature", "geometry": {"type": "Point", "coordinates": [8.5170453, 47.3869001]}, "properties": {"comparison": 2.0, "Name": "Maag MusicHall", "type": "TOURIST_THEATRE", "coord1": 47.3869001, "coord2": 8.5170453}}
,{"type": "Feature", "geometry": {"type": "Point", "coordinates": [8.5163225, 47.3865335]}, "properties": {"comparison": 2.2360679775, "Name": "Billettkasse der Tonhalle-Gesellschaft Z\u00fcrich", "type": "SHOP_KIOSK", "coord1": 47.3865335, "coord2": 8.5163225}}
,{"type": "Feature", "geometry": {"type": "Point", "coordinates": [8.5169761, 47.3863719]}, "properties": {"comparison": 2.4494897428, "Name": "LY'S Asia Take-Away Maag-Areal", "type": "FOOD_FASTFOOD", "coord1": 47.3863719, "coord2": 8.5169761}}
,{"type": "Feature", "geometry": {"type": "Point", "coordinates": [8.5158518, 47.3867624]}, "properties": {"comparison": 3.0, "Name": "Velocity", "type": "SPORT_LEISURECENTER", "coord1": 47.3867624, "coord2": 8.5158518}}
,{"type": "Feature", "geometry": {"type": "Point", "coordinates": [8.5167264, 47.3863155]}, "properties": {"comparison": 3.7416573868, "Name": "LY'S Asia Maag-Areal", "type": "FOOD_RESTAURANT", "coord1": 47.3863155, "coord2": 8.5167264}}
,{"type": "Feature", "geometry": {"type": "Point", "coordinates": [8.5161725, 47.3873727]}, "properties": {"comparison": 5.3851648071, "Name": "Living Sculptures", "type": "SHOP_DEPARTMENTSTORE", "coord1": 47.3873727, "coord2": 8.5161725}}
,{"type": "Feature", "geometry": {"type": "Point", "coordinates": [8.5174558, 47.3862839]}, "properties": {"comparison": 5.6568542495, "Name": "Hotel Rivington & Sons", "type": "FOOD_BAR", "coord1": 47.3862839, "coord2": 8.5174558}}
,{"type": "Feature", "geometry": {"type": "Point", "coordinates": [8.5176851, 47.3863467]}, "properties": {"comparison": 8.1853527719, "Name": "Coop Pronto Prime Tower", "type": "SHOP_CONVENIENCE", "coord1": 47.3863467, "coord2": 8.5176851}}
,{"type": "Feature", "geometry": {"type": "Point", "coordinates": [8.5313588, 47.3646238]}, "properties": {"comparison": 8.94427191, "Name": "Spr\u00fcngli Enge", "type": "SHOP_DEPARTMENTSTORE", "coord1": 47.3646238, "coord2": 8.5313588}}
,{"type": "Feature", "geometry": {"type": "Point", "coordinates": [7.9074917, 47.3516748]}, "properties": {"comparison": 9.0553851381, "Name": "Press & Books", "type": "SHOP_BOOK", "coord1": 47.3516748, "coord2": 7.9074917}}
,{"type": "Feature", "geometry": {"type": "Point", "coordinates": [8.5314535, 47.3640971]}, "properties": {"comparison": 9.1104335791, "Name": "Bahnhof Enge", "type": "TRANSPORT_TRAMSTOP", "coord1": 47.3640971, "coord2": 8.5314535}}
,{"type": "Feature", "geometry": {"type": "Point", "coordinates": [8.5314319, 47.3643805]}, "properties": {"comparison": 9.1104335791, "Name": "Bahnhof Enge", "type": "TRANSPORT_TRAMSTOP", "coord1": 47.3643805, "coord2": 8.5314319}}
,{"type": "Feature", "geometry": {"type": "Point", "coordinates": [8.5313298, 47.3640979]}, "properties": {"comparison": 9.1104335791, "Name": "Bahnhof Enge", "type": "TRANSPORT_TRAMSTOP", "coord1": 47.3640979, "coord2": 8.5313298}}
,{"type": "Feature", "geometry": {"type": "Point", "coordinates": [8.5307605, 47.3641833]}, "properties": {"comparison": 9.1651513899, "Name": "Z\u00fcrich Enge", "type": "TRANSPORT_STATION", "coord1": 47.3641833, "coord2": 8.5307605}}
,{"type": "Feature", "geometry": {"type": "Point", "coordinates": [8.5307314, 47.3639799]}, "properties": {"comparison": 9.2195444573, "Name": "Z\u00fcrich Enge", "type": "TRANSPORT_STATION", "coord1": 47.3639799, "coord2": 8.5307314}}
,{"type": "Feature", "geometry": {"type": "Point", "coordinates": [8.5306755, 47.3639663]}, "properties": {"comparison": 9.2195444573, "Name": "Z\u00fcrich Enge", "type": "TRANSPORT_STATION", "coord1": 47.3639663, "coord2": 8.5306755}}
,{"type": "Feature", "geometry": {"type": "Point", "coordinates": [9.377834, 47.5658694]}, "properties": {"comparison": 9.3808315196, "Name": "Franz", "type": "SHOP_GIFT", "coord1": 47.5658694, "coord2": 9.377834}}
,{"type": "Feature", "geometry": {"type": "Point", "coordinates": [9.3781612, 47.5658258]}, "properties": {"comparison": 9.3808315196, "Name": "Cr\u00e9dit Suisse", "type": "MONEY_EXCHANGE", "coord1": 47.5658258, "coord2": 9.3781612}}
,{"type": "Feature", "geometry": {"type": "Point", "coordinates": [9.2196121, 49.6449804]}, "properties": {"comparison": 9.3808315196, "Name": "Nibelungen Apotheke", "type": "HEALTH_PHARMACY", "coord1": 49.6449804, "coord2": 9.2196121}}
,{"type": "Feature", "geometry": {"type": "Point", "coordinates": [9.3783018, 47.5658034]}, "properties": {"comparison": 9.3808315196, "Name": "Baettig", "type": "SHOP_HAIRDRESSER", "coord1": 47.5658034, "coord2": 9.3783018}}
,{"type": "Feature", "geometry": {"type": "Point", "coordinates": [8.5309446, 47.3640724]}, "properties": {"comparison": 9.4339811321, "Name": "Migros Bahnhof Enge", "type": "SHOP_SUPERMARKET", "coord1": 47.3640724, "coord2": 8.5309446}}
,{"type": "Feature", "geometry": {"type": "Point", "coordinates": [8.5309477, 47.3642111]}, "properties": {"comparison": 9.4339811321, "Name": "Jung", "type": "SHOP_BAKERY", "coord1": 47.3642111, "coord2": 8.5309477}}
,{"type": "Feature", "geometry": {"type": "Point", "coordinates": [9.3773698, 47.5659765]}, "properties": {"comparison": 9.4339811321, "Name": "Brockenstube", "type": "SHOP_CONVENIENCE", "coord1": 47.5659765, "coord2": 9.3773698}}
,{"type": "Feature", "geometry": {"type": "Point", "coordinates": [9.3792916, 47.5655287]}, "properties": {"comparison": 9.4339811321, "Name": "Romanshorn", "type": "TRANSPORT_STATION", "coord1": 47.5655287, "coord2": 9.3792916}}
,{"type": "Feature", "geometry": {"type": "Point", "coordinates": [8.5310381, 47.3642597]}, "properties": {"comparison": 9.4868329805, "Name": "Bahnhof Enge", "type": "TRANSPORT_STATION", "coord1": 47.3642597, "coord2": 8.5310381}}
,{"type": "Feature", "geometry": {"type": "Point", "coordinates": [8.5311099, 47.3644231]}, "properties": {"comparison": 9.4868329805, "Name": "Maronistand", "type": "FOOD_FASTFOOD", "coord1": 47.3644231, "coord2": 8.5311099}}
,{"type": "Feature", "geometry": {"type": "Point", "coordinates": [7.9076188, 47.3516312]}, "properties": {"comparison": 9.4868329805, "Name": "k Kiosk", "type": "SHOP_KIOSK", "coord1": 47.3516312, "coord2": 7.9076188}}
,{"type": "Feature", "geometry": {"type": "Point", "coordinates": [9.3778264, 47.56557]}, "properties": {"comparison": 9.5916630466, "Name": "Bahnhof Apotheke", "type": "HEALTH_PHARMACY", "coord1": 47.56557, "coord2": 9.3778264}}
,{"type": "Feature", "geometry": {"type": "Point", "coordinates": [7.9085265, 47.3514192]}, "properties": {"comparison": 9.643650761, "Name": "migrolino", "type": "SHOP_SUPERMARKET", "coord1": 47.3514192, "coord2": 7.9085265}}
,{"type": "Feature", "geometry": {"type": "Point", "coordinates": [7.9085299, 47.3513159]}, "properties": {"comparison": 9.643650761, "Name": "Restaurant Bahnhof (Gleis 13)", "type": "FOOD_RESTAURANT", "coord1": 47.3513159, "coord2": 7.9085299}}
,{"type": "Feature", "geometry": {"type": "Point", "coordinates": [7.9085348, 47.3515101]}, "properties": {"comparison": 9.6953597148, "Name": "migrolino take away", "type": "FOOD_FASTFOOD", "coord1": 47.3515101, "coord2": 7.9085348}}
,{"type": "Feature", "geometry": {"type": "Point", "coordinates": [7.9085542, 47.351528]}, "properties": {"comparison": 9.6953597148, "Name": "Bio-Land", "type": "SHOP_SUPERMARKET", "coord1": 47.351528, "coord2": 7.9085542}}
,{"type": "Feature", "geometry": {"type": "Point", "coordinates": [7.9083767, 47.3511089]}, "properties": {"comparison": 9.6953597148, "Name": "La Carbonara", "type": "FOOD_RESTAURANT", "coord1": 47.3511089, "coord2": 7.9083767}}
,{"type": "Feature", "geometry": {"type": "Point", "coordinates": [7.9085162, 47.3514683]}, "properties": {"comparison": 9.6953597148, "Name": "Bio-Land", "type": "FOOD_RESTAURANT", "coord1": 47.3514683, "coord2": 7.9085162}}
,{"type": "Feature", "geometry": {"type": "Point", "coordinates": [8.4871697, 50.0698069]}, "properties": {"comparison": 9.6953597148, "Name": "Heimtextilien Annegret Hillebrand", "type": "SHOP_CLOTHES", "coord1": 50.0698069, "coord2": 8.4871697}}
,{"type": "Feature", "geometry": {"type": "Point", "coordinates": [4.3245352, 52.0716468]}, "properties": {"comparison": 9.7467943448, "Name": "Rijswijkseplein - Station HS", "type": "TRANSPORT_TRAMSTOP", "coord1": 52.0716468, "coord2": 4.3245352}}
,{"type": "Feature", "geometry": {"type": "Point", "coordinates": [8.1708007, 49.4601875]}, "properties": {"comparison": 9.7467943448, "Name": "Nah und gut Stiegler", "type": "SHOP_SUPERMARKET", "coord1": 49.4601875, "coord2": 8.1708007}}
,{"type": "Feature", "geometry": {"type": "Point", "coordinates": [9.3781699, 47.5658312]}, "properties": {"comparison": 9.7467943448, "Name": "Credit Suisse", "type": "MONEY_BANK", "coord1": 47.5658312, "coord2": 9.3781699}}
,{"type": "Feature", "geometry": {"type": "Point", "coordinates": [4.3709294, 50.8361049]}, "properties": {"comparison": 9.7467943448, "Name": "Couture Ida", "type": "SHOP_DEPARTMENTSTORE", "coord1": 50.8361049, "coord2": 4.3709294}}
,{"type": "Feature", "geometry": {"type": "Point", "coordinates": [18.0158194, 47.0302974]}, "properties": {"comparison": 9.7979589711, "Name": "Zs\u00e1k J\u00f3zsef Vend\u00e9gl\u0151je", "type": "TOURIST_MEMORIAL", "coord1": 47.0302974, "coord2": 18.0158194}}
,{"type": "Feature", "geometry": {"type": "Point", "coordinates": [18.0157006, 47.0302256]}, "properties": {"comparison": 9.7979589711, "Name": "Marble book", "type": "TOURIST_ART", "coord1": 47.0302256, "coord2": 18.0157006}}
,{"type": "Feature", "geometry": {"type": "Point", "coordinates": [12.796082, 47.3208458]}, "properties": {"comparison": 9.7979589711, "Name": "Dr. G\u00f6ttlicher", "type": "HEALTH_DOCTORS", "coord1": 47.3208458, "coord2": 12.796082}}
,{"type": "Feature", "geometry": {"type": "Point", "coordinates": [12.7962056, 47.320847]}, "properties": {"comparison": 9.7979589711, "Name": "Hansaton", "type": "SHOP_HEARINGAIDS", "coord1": 47.320847, "coord2": 12.7962056}}
,{"type": "Feature", "geometry": {"type": "Point", "coordinates": [37.6624197, 55.7544485]}, "properties": {"comparison": 9.7979589711, "Name": "\u0422\u0440\u0438\u0443\u043c\u0444", "type": "FOOD_RESTAURANT", "coord1": 55.7544485, "coord2": 37.6624197}}
,{"type": "Feature", "geometry": {"type": "Point", "coordinates": [12.7960808, 47.3208633]}, "properties": {"comparison": 9.7979589711, "Name": "Dr. Herzog", "type": "HEALTH_DOCTORS", "coord1": 47.3208633, "coord2": 12.7960808}}
,{"type": "Feature", "geometry": {"type": "Point", "coordinates": [6.1418283, 46.2129273]}, "properties": {"comparison": 9.7979589711, "Name": "\u00c9glise \u00c9vang\u00e9lique de Montbrillant", "type": "POW_UNKOWN", "coord1": 46.2129273, "coord2": 6.1418283}}
,{"type": "Feature", "geometry": {"type": "Point", "coordinates": [4.3224156, 52.0698899]}, "properties": {"comparison": 9.8994949366, "Name": "Den Haag Hollands Spoor", "type": "TRANSPORT_STATION", "coord1": 52.0698899, "coord2": 4.3224156}}
,{"type": "Feature", "geometry": {"type": "Point", "coordinates": [7.9630992, 49.2045924]}, "properties": {"comparison": 9.8994949366, "Name": "St. Josef", "type": "POW_CHRISTIAN", "coord1": 49.2045924, "coord2": 7.9630992}}
,{"type": "Feature", "geometry": {"type": "Point", "coordinates": [9.3776036, 47.5654452]}, "properties": {"comparison": 9.9498743711, "Name": "Romanshorn", "type": "POI_TOWN", "coord1": 47.5654452, "coord2": 9.3776036}}
,{"type": "Feature", "geometry": {"type": "Point", "coordinates": [7.9075723, 47.3518121]}, "properties": {"comparison": 9.9498743711, "Name": "Vital Punkt", "type": "SHOP_CONVENIENCE", "coord1": 47.3518121, "coord2": 7.9075723}}
,{"type": "Feature", "geometry": {"type": "Point", "coordinates": [8.5199443, 47.3855039]}, "properties": {"comparison": 10.0, "Name": "Supermarket", "type": "TOURIST_NIGHTCLUB", "coord1": 47.3855039, "coord2": 8.5199443}}
,{"type": "Feature", "geometry": {"type": "Point", "coordinates": [7.9085665, 47.3516103]}, "properties": {"comparison": 10.0, "Name": "Coq d'Or", "type": "FOOD_BAR", "coord1": 47.3516103, "coord2": 7.9085665}}
,{"type": "Feature", "geometry": {"type": "Point", "coordinates": [-0.903677, 52.2359497]}, "properties": {"comparison": 10.0995049384, "Name": "Northampton Green", "type": "LANDUSE_GRASS", "coord1": 52.2359497, "coord2": -0.903677}}
,{"type": "Feature", "geometry": {"type": "Point", "coordinates": [9.3769505, 47.5662063]}, "properties": {"comparison": 10.0995049384, "Name": "tragbar", "type": "SHOP_JEWELRY", "coord1": 47.5662063, "coord2": 9.3769505}}
,{"type": "Feature", "geometry": {"type": "Point", "coordinates": [9.3769743, 47.5662685]}, "properties": {"comparison": 10.0995049384, "Name": "reparierbar", "type": "SHOP_BICYCLE", "coord1": 47.5662685, "coord2": 9.3769743}}
,{"type": "Feature", "geometry": {"type": "Point", "coordinates": [7.908392, 47.3519238]}, "properties": {"comparison": 10.1488915651, "Name": "Stunde Null-Stein", "type": "TOURIST_MEMORIAL", "coord1": 47.3519238, "coord2": 7.908392}}
,{"type": "Feature", "geometry": {"type": "Point", "coordinates": [9.9742264, 52.3764871]}, "properties": {"comparison": 10.1980390272, "Name": "Lehrte", "type": "TRANSPORT_STATION", "coord1": 52.3764871, "coord2": 9.9742264}}
,{"type": "Feature", "geometry": {"type": "Point", "coordinates": [1.9060027, 47.9084105]}, "properties": {"comparison": 10.1980390272, "Name": "Carrefour", "type": "SHOP_SUPERMARKET", "coord1": 47.9084105, "coord2": 1.9060027}}
,{"type": "Feature", "geometry": {"type": "Point", "coordinates": [13.4261762, 52.5432142]}, "properties": {"comparison": 10.246950766, "Name": "Sparkasse", "type": "MONEY_BANK", "coord1": 52.5432142, "coord2": 13.4261762}}
,{"type": "Feature", "geometry": {"type": "Point", "coordinates": [2.3805619, 48.827102]}, "properties": {"comparison": 10.246950766, "Name": "Place Aur\u00e9lie Nemours", "type": "TOURIST_FOUNTAIN", "coord1": 48.827102, "coord2": 2.3805619}}
,{"type": "Feature", "geometry": {"type": "Point", "coordinates": [13.4262046, 52.5432371]}, "properties": {"comparison": 10.246950766, "Name": "Biowirtschaft", "type": "FOOD_CAFE", "coord1": 52.5432371, "coord2": 13.4262046}}
,{"type": "Feature", "geometry": {"type": "Point", "coordinates": [8.1703218, 49.4595924]}, "properties": {"comparison": 10.3440804328, "Name": "Kreisverwaltung", "type": "AMENITY_TOWNHALL", "coord1": 49.4595924, "coord2": 8.1703218}}
,{"type": "Feature", "geometry": {"type": "Point", "coordinates": [7.9083146, 47.3519701]}, "properties": {"comparison": 10.3923048454, "Name": "Olten", "type": "TRANSPORT_STATION", "coord1": 47.3519701, "coord2": 7.9083146}}
,{"type": "Feature", "geometry": {"type": "Point", "coordinates": [7.9082561, 47.3519726]}, "properties": {"comparison": 10.3923048454, "Name": "Olten", "type": "TRANSPORT_STATION", "coord1": 47.3519726, "coord2": 7.9082561}}
,{"type": "Feature", "geometry": {"type": "Point", "coordinates": [9.2879442, 49.1492508]}, "properties": {"comparison": 10.3923048454, "Name": "EP Zacharias", "type": "SHOP_HIFI", "coord1": 49.1492508, "coord2": 9.2879442}}
,{"type": "Feature", "geometry": {"type": "Point", "coordinates": [4.3223162, 52.0699664]}, "properties": {"comparison": 10.4403065089, "Name": "Den Haag Hollands Spoor", "type": "TRANSPORT_STATION", "coord1": 52.0699664, "coord2": 4.3223162}}
,{"type": "Feature", "geometry": {"type": "Point", "coordinates": [12.7960814, 47.3208328]}, "properties": {"comparison": 10.4403065089, "Name": "Dr. H\u00f6llwerth", "type": "HEALTH_DOCTORS", "coord1": 47.3208328, "coord2": 12.7960814}}
,{"type": "Feature", "geometry": {"type": "Point", "coordinates": [6.5952551, 48.0170918]}, "properties": {"comparison": 10.5830052443, "Name": "Remiremont", "type": "AMENITY_POSTOFFICE", "coord1": 48.0170918, "coord2": 6.5952551}}
,{"type": "Feature", "geometry": {"type": "Point", "coordinates": [9.9742802, 52.3768562]}, "properties": {"comparison": 10.5830052443, "Name": "Lehrte", "type": "TRANSPORT_STATION", "coord1": 52.3768562, "coord2": 9.9742802}}
,{"type": "Feature", "geometry": {"type": "Point", "coordinates": [13.426235, 52.5432857]}, "properties": {"comparison": 10.5830052443, "Name": "my eXtra Shop Berlin Prenzl'Berg", "type": "SHOP_PHONE", "coord1": 52.5432857, "coord2": 13.426235}}
,{"type": "Feature", "geometry": {"type": "Point", "coordinates": [12.7961354, 47.3208059]}, "properties": {"comparison": 10.5830052443, "Name": "Trafik", "type": "SHOP_KIOSK", "coord1": 47.3208059, "coord2": 12.7961354}}
,{"type": "Feature", "geometry": {"type": "Point", "coordinates": [9.9745193, 52.3769344]}, "properties": {"comparison": 10.6301458127, "Name": "Lehrte", "type": "TRANSPORT_STATION", "coord1": 52.3769344, "coord2": 9.9745193}}
,{"type": "Feature", "geometry": {"type": "Point", "coordinates": [8.5181705, 47.3859148]}, "properties": {"comparison": 10.6301458127, "Name": "Helsinki", "type": "TOURIST_NIGHTCLUB", "coord1": 47.3859148, "coord2": 8.5181705}}
,{"type": "Feature", "geometry": {"type": "Point", "coordinates": [9.7672351, 49.9619544]}, "properties": {"comparison": 10.6301458127, "Name": "Schalenturm", "type": "POI_TOWERLOOKOUT", "coord1": 49.9619544, "coord2": 9.7672351}}
,{"type": "Feature", "geometry": {"type": "Point", "coordinates": [9.9743382, 52.3768768]}, "properties": {"comparison": 10.6301458127, "Name": "Lehrte", "type": "TRANSPORT_STATION", "coord1": 52.3768768, "coord2": 9.9743382}}
,{"type": "Feature", "geometry": {"type": "Point", "coordinates": [11.0478539, 59.9556212]}, "properties": {"comparison": 10.6301458127, "Name": "Birken Lunchbar", "type": "FOOD_CAFE", "coord1": 59.9556212, "coord2": 11.0478539}}
,{"type": "Feature", "geometry": {"type": "Point", "coordinates": [7.9080979, 47.351987]}, "properties": {"comparison": 10.6301458127, "Name": "Olten", "type": "TRANSPORT_STATION", "coord1": 47.351987, "coord2": 7.9080979}}
,{"type": "Feature", "geometry": {"type": "Point", "coordinates": [8.51772, 47.3858981]}, "properties": {"comparison": 10.6301458127, "Name": "Marronistand", "type": "FOOD_FASTFOOD", "coord1": 47.3858981, "coord2": 8.51772}}
,{"type": "Feature", "geometry": {"type": "Point", "coordinates": [7.907186, 47.3520417]}, "properties": {"comparison": 10.6301458127, "Name": "Olten", "type": "TRANSPORT_STATION", "coord1": 47.3520417, "coord2": 7.907186}}
,{"type": "Feature", "geometry": {"type": "Point", "coordinates": [9.7669833, 49.9619146]}, "properties": {"comparison": 10.6301458127, "Name": "N\u00fcrnberger Hof", "type": "TOURIST_FOUNTAIN", "coord1": 49.9619146, "coord2": 9.7669833}}
,{"type": "Feature", "geometry": {"type": "Point", "coordinates": [7.9071295, 47.3520567]}, "properties": {"comparison": 10.677078252, "Name": "Olten", "type": "TRANSPORT_STATION", "coord1": 47.3520567, "coord2": 7.9071295}}
,{"type": "Feature", "geometry": {"type": "Point", "coordinates": [8.5182895, 47.3859531]}, "properties": {"comparison": 10.677078252, "Name": "Zum Gaul", "type": "FOOD_RESTAURANT", "coord1": 47.3859531, "coord2": 8.5182895}}
,{"type": "Feature", "geometry": {"type": "Point", "coordinates": [17.5578724, 46.7496828]}, "properties": {"comparison": 10.677078252, "Name": "Orsz\u00e1gz\u00e1szl\u00f3", "type": "TOURIST_MEMORIAL", "coord1": 46.7496828, "coord2": 17.5578724}}
,{"type": "Feature", "geometry": {"type": "Point", "coordinates": [9.9741792, 52.3768173]}, "properties": {"comparison": 10.677078252, "Name": "Lehrte", "type": "TRANSPORT_STATION", "coord1": 52.3768173, "coord2": 9.9741792}}
,{"type": "Feature", "geometry": {"type": "Point", "coordinates": [17.5578771, 46.7501333]}, "properties": {"comparison": 10.677078252, "Name": "Fony\u00f3d", "type": "TRANSPORT_STATION", "coord1": 46.7501333, "coord2": 17.5578771}}
,{"type": "Feature", "geometry": {"type": "Point", "coordinates": [17.5585461, 46.7498246]}, "properties": {"comparison": 10.677078252, "Name": "Turul-szobor", "type": "TOURIST_ART", "coord1": 46.7498246, "coord2": 17.5585461}}
,{"type": "Feature", "geometry": {"type": "Point", "coordinates": [8.3661994, 46.9566476]}, "properties": {"comparison": 10.7238052948, "Name": "Migros Partner", "type": "SHOP_CONVENIENCE", "coord1": 46.9566476, "coord2": 8.3661994}}
,{"type": "Feature", "geometry": {"type": "Point", "coordinates": [4.0268415, 49.2578423]}, "properties": {"comparison": 10.7238052948, "Name": "Golden Tulip Reims L'Univers", "type": "ACCOMMO_HOTEL", "coord1": 49.2578423, "coord2": 4.0268415}}
,{"type": "Feature", "geometry": {"type": "Point", "coordinates": [17.55778, 46.74925]}, "properties": {"comparison": 10.7703296143, "Name": "\u00dajs\u00e1gos", "type": "SHOP_NEWSPAPER", "coord1": 46.74925, "coord2": 17.55778}}
,{"type": "Feature", "geometry": {"type": "Point", "coordinates": [9.2870915, 49.1496005]}, "properties": {"comparison": 10.8166538264, "Name": "Christuskirche", "type": "POW_CHRISTIAN", "coord1": 49.1496005, "coord2": 9.2870915}}
,{"type": "Feature", "geometry": {"type": "Point", "coordinates": [8.3677347, 46.9578492]}, "properties": {"comparison": 10.8166538264, "Name": "von Matt", "type": "SHOP_BOOK", "coord1": 46.9578492, "coord2": 8.3677347}}
,{"type": "Feature", "geometry": {"type": "Point", "coordinates": [8.5009, 50.1442674]}, "properties": {"comparison": 10.8627804912, "Name": "Rathaus", "type": "AMENITY_TOWNHALL", "coord1": 50.1442674, "coord2": 8.5009}}
,{"type": "Feature", "geometry": {"type": "Point", "coordinates": [7.9073673, 47.3520359]}, "properties": {"comparison": 10.8627804912, "Name": "Olten", "type": "TRANSPORT_STATION", "coord1": 47.3520359, "coord2": 7.9073673}}
,{"type": "Feature", "geometry": {"type": "Point", "coordinates": [7.907406, 47.3520307]}, "properties": {"comparison": 10.8627804912, "Name": "Olten", "type": "TRANSPORT_STATION", "coord1": 47.3520307, "coord2": 7.907406}}
,{"type": "Feature", "geometry": {"type": "Point", "coordinates": [8.5008673, 50.1446018]}, "properties": {"comparison": 10.8627804912, "Name": "Taunus-Sparkasse", "type": "MONEY_BANK", "coord1": 50.1446018, "coord2": 8.5008673}}
,{"type": "Feature", "geometry": {"type": "Point", "coordinates": [8.3667588, 46.9568349]}, "properties": {"comparison": 10.8627804912, "Name": "Goldschmiede", "type": "SHOP_JEWELRY", "coord1": 46.9568349, "coord2": 8.3667588}}
,{"type": "Feature", "geometry": {"type": "Point", "coordinates": [9.2864706, 49.1494869]}, "properties": {"comparison": 10.8627804912, "Name": "Carignan-Platz", "type": "TOURIST_FOUNTAIN", "coord1": 49.1494869, "coord2": 9.2864706}}
,{"type": "Feature", "geometry": {"type": "Point", "coordinates": [7.9080593, 47.35199]}, "properties": {"comparison": 10.8627804912, "Name": "Olten", "type": "TRANSPORT_STATION", "coord1": 47.35199, "coord2": 7.9080593}}
,{"type": "Feature", "geometry": {"type": "Point", "coordinates": [1.9039334, 47.9100124]}, "properties": {"comparison": 10.8627804912, "Name": "Cr\u00e9dit Coop\u00e9ratif", "type": "MONEY_BANK", "coord1": 47.9100124, "coord2": 1.9039334}}
,{"type": "Feature", "geometry": {"type": "Point", "coordinates": [17.5568645, 46.7494755]}, "properties": {"comparison": 10.8627804912, "Name": "Fony\u00f3d vas\u00fat\u00e1llom\u00e1s", "type": "TRANSPORT_STATION", "coord1": 46.7494755, "coord2": 17.5568645}}
,{"type": "Feature", "geometry": {"type": "Point", "coordinates": [8.3668289, 46.956683]}, "properties": {"comparison": 10.8627804912, "Name": "Caritas", "type": "SHOP_CLOTHES", "coord1": 46.956683, "coord2": 8.3668289}}
,{"type": "Feature", "geometry": {"type": "Point", "coordinates": [8.3666998, 46.9568681]}, "properties": {"comparison": 10.8627804912, "Name": "Haar auf Verlangen", "type": "SHOP_HAIRDRESSER", "coord1": 46.9568681, "coord2": 8.3666998}}
,{"type": "Feature", "geometry": {"type": "Point", "coordinates": [6.8127348, 51.2281343]}, "properties": {"comparison": 10.9087121146, "Name": "Flurklinik", "type": "FOOD_RESTAURANT", "coord1": 51.2281343, "coord2": 6.8127348}}
,{"type": "Feature", "geometry": {"type": "Point", "coordinates": [9.3775719, 47.5648158]}, "properties": {"comparison": 10.9087121146, "Name": "Tegos Eastwind", "type": "FOOD_FASTFOOD", "coord1": 47.5648158, "coord2": 9.3775719}}
,{"type": "Feature", "geometry": {"type": "Point", "coordinates": [9.3775567, 47.5649727]}, "properties": {"comparison": 10.9087121146, "Name": "Rosenroth", "type": "SHOP_GIFT", "coord1": 47.5649727, "coord2": 9.3775567}}
,{"type": "Feature", "geometry": {"type": "Point", "coordinates": [7.9078238, 47.3520027]}, "properties": {"comparison": 10.9087121146, "Name": "Olten", "type": "TRANSPORT_STATION", "coord1": 47.3520027, "coord2": 7.9078238}}
,{"type": "Feature", "geometry": {"type": "Point", "coordinates": [7.5849605, 47.546595]}, "properties": {"comparison": 10.9087121146, "Name": "D\u00f6ner", "type": "FOOD_FASTFOOD", "coord1": 47.546595, "coord2": 7.5849605}}
,{"type": "Feature", "geometry": {"type": "Point", "coordinates": [7.9078846, 47.3519995]}, "properties": {"comparison": 10.9087121146, "Name": "Olten", "type": "TRANSPORT_STATION", "coord1": 47.3519995, "coord2": 7.9078846}}
,{"type": "Feature", "geometry": {"type": "Point", "coordinates": [8.5003523, 50.1437419]}, "properties": {"comparison": 10.9087121146, "Name": "B\u00fccherstube", "type": "SHOP_BOOK", "coord1": 50.1437419, "coord2": 8.5003523}}
,{"type": "Feature", "geometry": {"type": "Point", "coordinates": [8.3682627, 46.9585717]}, "properties": {"comparison": 10.9544511501, "Name": "Wohnsein", "type": "SHOP_TOYS", "coord1": 46.9585717, "coord2": 8.3682627}}
,{"type": "Feature", "geometry": {"type": "Point", "coordinates": [9.7669772, 49.9614439]}, "properties": {"comparison": 10.9544511501, "Name": "Postfiliale", "type": "AMENITY_POSTOFFICE", "coord1": 49.9614439, "coord2": 9.7669772}}
,{"type": "Feature", "geometry": {"type": "Point", "coordinates": [8.3377502, 48.7643315]}, "properties": {"comparison": 11.0, "Name": "Neijla's Blumen Atelier", "type": "SHOP_FLORIST", "coord1": 48.7643315, "coord2": 8.3377502}}
,{"type": "Feature", "geometry": {"type": "Point", "coordinates": [8.3376579, 48.7644644]}, "properties": {"comparison": 11.0, "Name": "Murgtal-Apotheke", "type": "HEALTH_PHARMACY", "coord1": 48.7644644, "coord2": 8.3376579}}
,{"type": "Feature", "geometry": {"type": "Point", "coordinates": [9.7671458, 49.9615991]}, "properties": {"comparison": 11.0, "Name": "Weinhaus Frank \"Schimmere\"", "type": "FOOD_RESTAURANT", "coord1": 49.9615991, "coord2": 9.7671458}}
,{"type": "Feature", "geometry": {"type": "Point", "coordinates": [11.0475083, 59.9555226]}, "properties": {"comparison": 11.0, "Name": "Kokos", "type": "FOOD_CAFE", "coord1": 59.9555226, "coord2": 11.0475083}}
,{"type": "Feature", "geometry": {"type": "Point", "coordinates": [16.3798656, 48.1872866]}, "properties": {"comparison": 11.0453610172, "Name": "Campus Br\u00e4u", "type": "FOOD_RESTAURANT", "coord1": 48.1872866, "coord2": 16.3798656}}
,{"type": "Feature", "geometry": {"type": "Point", "coordinates": [2.2953964, 48.8972865]}, "properties": {"comparison": 11.0453610172, "Name": "Copy-Top", "type": "SHOP_COPYSHOP", "coord1": 48.8972865, "coord2": 2.2953964}}
,{"type": "Feature", "geometry": {"type": "Point", "coordinates": [16.3803963, 48.1867442]}, "properties": {"comparison": 11.1803398875, "Name": "IKI", "type": "FOOD_RESTAURANT", "coord1": 48.1867442, "coord2": 16.3803963}}
,{"type": "Feature", "geometry": {"type": "Point", "coordinates": [8.855043, 47.2601548]}, "properties": {"comparison": 11.1803398875, "Name": "R\u00fcti ZH", "type": "TRANSPORT_STATION", "coord1": 47.2601548, "coord2": 8.855043}}
,{"type": "Feature", "geometry": {"type": "Point", "coordinates": [8.8550853, 47.2601897]}, "properties": {"comparison": 11.1803398875, "Name": "R\u00fcti ZH", "type": "TRANSPORT_STATION", "coord1": 47.2601897, "coord2": 8.8550853}}
,{"type": "Feature", "geometry": {"type": "Point", "coordinates": [13.6272005, 51.1051779]}, "properties": {"comparison": 11.1803398875, "Name": "Charmant", "type": "SHOP_HAIRDRESSER", "coord1": 51.1051779, "coord2": 13.6272005}}
,{"type": "Feature", "geometry": {"type": "Point", "coordinates": [8.9123857, 49.1355844]}, "properties": {"comparison": 11.2249721603, "Name": "Schuhhaus Geiger", "type": "SHOP_SHOES", "coord1": 49.1355844, "coord2": 8.9123857}}
,{"type": "Feature", "geometry": {"type": "Point", "coordinates": [4.3228652, 52.0695772]}, "properties": {"comparison": 11.2249721603, "Name": "Den Haag Hollands Spoor", "type": "TRANSPORT_STATION", "coord1": 52.0695772, "coord2": 4.3228652}}
,{"type": "Feature", "geometry": {"type": "Point", "coordinates": [17.5581195, 46.7493606]}, "properties": {"comparison": 11.2249721603, "Name": "Cukr\u00e1szda", "type": "SHOP_CONFECTIONERY", "coord1": 46.7493606, "coord2": 17.5581195}}
,{"type": "Feature", "geometry": {"type": "Point", "coordinates": [7.907622, 47.352027]}, "properties": {"comparison": 11.2249721603, "Name": "Olten", "type": "TRANSPORT_STATION", "coord1": 47.352027, "coord2": 7.907622}}
,{"type": "Feature", "geometry": {"type": "Point", "coordinates": [7.9076085, 47.3519836]}, "properties": {"comparison": 11.2249721603, "Name": "Buffet Olten", "type": "FOOD_RESTAURANT", "coord1": 47.3519836, "coord2": 7.9076085}}
,{"type": "Feature", "geometry": {"type": "Point", "coordinates": [2.2956075, 48.8975874]}, "properties": {"comparison": 11.2249721603, "Name": "Square de la gare", "type": "LANDUSE_GRASS", "coord1": 48.8975874, "coord2": 2.2956075}}
,{"type": "Feature", "geometry": {"type": "Point", "coordinates": [19.0145012, 50.2557403]}, "properties": {"comparison": 11.2694276696, "Name": "Plac Andrzeja", "type": "LANDUSE_GRASS", "coord1": 50.2557403, "coord2": 19.0145012}}
,{"type": "Feature", "geometry": {"type": "Point", "coordinates": [8.9125794, 49.1356577]}, "properties": {"comparison": 11.313708499, "Name": "Schreibwaren M\u00fcller", "type": "SHOP_DEPARTMENTSTORE", "coord1": 49.1356577, "coord2": 8.9125794}}
,{"type": "Feature", "geometry": {"type": "Point", "coordinates": [7.907667, 47.3524005]}, "properties": {"comparison": 11.3578166916, "Name": "iPhone Klinik", "type": "SHOP_PHONE", "coord1": 47.3524005, "coord2": 7.907667}}
,{"type": "Feature", "geometry": {"type": "Point", "coordinates": [12.7952871, 47.3208263]}, "properties": {"comparison": 11.3578166916, "Name": "Kupferkessel", "type": "FOOD_RESTAURANT", "coord1": 47.3208263, "coord2": 12.7952871}}
,{"type": "Feature", "geometry": {"type": "Point", "coordinates": [7.9078492, 47.3524694]}, "properties": {"comparison": 11.3578166916, "Name": "Hardegg-Unterf\u00fchrung", "type": "TOURIST_FOUNTAIN", "coord1": 47.3524694, "coord2": 7.9078492}}
,{"type": "Feature", "geometry": {"type": "Point", "coordinates": [17.5585835, 46.7495058]}, "properties": {"comparison": 11.3578166916, "Name": "dm", "type": "SHOP_CONVENIENCE", "coord1": 46.7495058, "coord2": 17.5585835}}
,{"type": "Feature", "geometry": {"type": "Point", "coordinates": [7.907554, 47.3525341]}, "properties": {"comparison": 11.3578166916, "Name": "Pino", "type": "FOOD_CAFE", "coord1": 47.3525341, "coord2": 7.907554}}
,{"type": "Feature", "geometry": {"type": "Point", "coordinates": [17.5565858, 46.7490072]}, "properties": {"comparison": 11.3578166916, "Name": "\u00dcl\u0151 n\u0151", "type": "TOURIST_ART", "coord1": 46.7490072, "coord2": 17.5565858}}
,{"type": "Feature", "geometry": {"type": "Point", "coordinates": [7.9077485, 47.3524682]}, "properties": {"comparison": 11.3578166916, "Name": "Poetische Maschine", "type": "TOURIST_ART", "coord1": 47.3524682, "coord2": 7.9077485}}
,{"type": "Feature", "geometry": {"type": "Point", "coordinates": [17.5584467, 46.7494708]}, "properties": {"comparison": 11.401754251, "Name": "K&H Bank + ATM", "type": "MONEY_BANK", "coord1": 46.7494708, "coord2": 17.5584467}}
,{"type": "Feature", "geometry": {"type": "Point", "coordinates": [16.3442325, 48.2453176]}, "properties": {"comparison": 11.4455231423, "Name": "Strau\u00df-Lanner-Denkmal", "type": "TOURIST_MEMORIAL", "coord1": 48.2453176, "coord2": 16.3442325}}
,{"type": "Feature", "geometry": {"type": "Point", "coordinates": [9.3772303, 47.5666415]}, "properties": {"comparison": 11.4455231423, "Name": "Steueramt", "type": "AMENITY_TOWNHALL", "coord1": 47.5666415, "coord2": 9.3772303}}
,{"type": "Feature", "geometry": {"type": "Point", "coordinates": [8.0785787, 48.530004]}, "properties": {"comparison": 11.4455231423, "Name": "Da Camillo", "type": "FOOD_RESTAURANT", "coord1": 48.530004, "coord2": 8.0785787}}
,{"type": "Feature", "geometry": {"type": "Point", "coordinates": [16.3443595, 48.2452621]}, "properties": {"comparison": 11.4455231423, "Name": "Strau\u00df-Lanner-Park", "type": "LANDUSE_GRASS", "coord1": 48.2452621, "coord2": 16.3443595}}
,{"type": "Feature", "geometry": {"type": "Point", "coordinates": [-1.673874, 48.1023958]}, "properties": {"comparison": 11.4891252931, "Name": "Ibis", "type": "ACCOMMO_HOTEL", "coord1": 48.1023958, "coord2": -1.673874}}
,{"type": "Feature", "geometry": {"type": "Point", "coordinates": [8.3376378, 48.7645011]}, "properties": {"comparison": 11.4891252931, "Name": "Dr. med. Ina Gabriele Ilkhanipur", "type": "HEALTH_DOCTORS", "coord1": 48.7645011, "coord2": 8.3376378}}
,{"type": "Feature", "geometry": {"type": "Point", "coordinates": [1.9051534, 47.9090184]}, "properties": {"comparison": 11.5325625947, "Name": "Orl\u00e9ans", "type": "TRANSPORT_STATION", "coord1": 47.9090184, "coord2": 1.9051534}}
,{"type": "Feature", "geometry": {"type": "Point", "coordinates": [7.9642929, 49.2045487]}, "properties": {"comparison": 11.5325625947, "Name": "Universit\u00e4tsprofessor Dr. Dr. August Naegle", "type": "TOURIST_MEMORIAL", "coord1": 49.2045487, "coord2": 7.9642929}}
,{"type": "Feature", "geometry": {"type": "Point", "coordinates": [37.6617538, 55.7540819]}, "properties": {"comparison": 11.5325625947, "Name": "Nikon", "type": "SHOP_HIFI", "coord1": 55.7540819, "coord2": 37.6617538}}
,{"type": "Feature", "geometry": {"type": "Point", "coordinates": [8.9120599, 49.1354716]}, "properties": {"comparison": 11.5325625947, "Name": "Blumen Korth", "type": "SHOP_FLORIST", "coord1": 49.1354716, "coord2": 8.9120599}}
,{"type": "Feature", "geometry": {"type": "Point", "coordinates": [-3.6905695, 40.4001752]}, "properties": {"comparison": 11.5325625947, "Name": "Biblioteca Regional Joaqu\u00edn Leguina", "type": "AMENITY_LIBRARY", "coord1": 40.4001752, "coord2": -3.6905695}}
,{"type": "Feature", "geometry": {"type": "Point", "coordinates": [8.7865402, 53.103367]}, "properties": {"comparison": 11.5325625947, "Name": "Bremen-Walle", "type": "TRANSPORT_STATION", "coord1": 53.103367, "coord2": 8.7865402}}
,{"type": "Feature", "geometry": {"type": "Point", "coordinates": [7.9648203, 49.2039187]}, "properties": {"comparison": 11.5758369028, "Name": "B\u00fcro f\u00fcr Tourismus Annweiler", "type": "TOURIST_INFORMATION", "coord1": 49.2039187, "coord2": 7.9648203}}
,{"type": "Feature", "geometry": {"type": "Point", "coordinates": [7.9651175, 49.2040519]}, "properties": {"comparison": 11.5758369028, "Name": "Verbandsgemeindeverwaltung Annweiler am Trifels", "type": "AMENITY_TOWNHALL", "coord1": 49.2040519, "coord2": 7.9651175}}
,{"type": "Feature", "geometry": {"type": "Point", "coordinates": [7.9646842, 49.2039729]}, "properties": {"comparison": 11.5758369028, "Name": "Terminal", "type": "TOURIST_INFORMATION", "coord1": 49.2039729, "coord2": 7.9646842}}
,{"type": "Feature", "geometry": {"type": "Point", "coordinates": [7.9076534, 47.352177]}, "properties": {"comparison": 11.5758369028, "Name": "Coop", "type": "SHOP_CONVENIENCE", "coord1": 47.352177, "coord2": 7.9076534}}
,{"type": "Feature", "geometry": {"type": "Point", "coordinates": [7.9647198, 49.2040957]}, "properties": {"comparison": 11.5758369028, "Name": "Verbandsgemeindeverwaltung Annweiler am Trifels", "type": "AMENITY_TOWNHALL", "coord1": 49.2040957, "coord2": 7.9647198}}
,{"type": "Feature", "geometry": {"type": "Point", "coordinates": [16.3441618, 48.2455033]}, "properties": {"comparison": 11.5758369028, "Name": "Kinderspielplatz", "type": "AMENITY_PLAYGROUND", "coord1": 48.2455033, "coord2": 16.3441618}}
,{"type": "Feature", "geometry": {"type": "Point", "coordinates": [9.1458597, 49.9826991]}, "properties": {"comparison": 11.5758369028, "Name": "Bekleidungsfachschule", "type": "EDUCATION_SCHOOL", "coord1": 49.9826991, "coord2": 9.1458597}}
,{"type": "Feature", "geometry": {"type": "Point", "coordinates": [8.5006993, 50.1440169]}, "properties": {"comparison": 11.6189500386, "Name": "Bella Italia", "type": "FOOD_RESTAURANT", "coord1": 50.1440169, "coord2": 8.5006993}}
,{"type": "Feature", "geometry": {"type": "Point", "coordinates": [8.8546386, 47.2602513]}, "properties": {"comparison": 11.6189500386, "Name": "R\u00fcti", "type": "TRANSPORT_STATION", "coord1": 47.2602513, "coord2": 8.8546386}}
,{"type": "Feature", "geometry": {"type": "Point", "coordinates": [8.8546598, 47.2602295]}, "properties": {"comparison": 11.6189500386, "Name": "Maroni", "type": "FOOD_FASTFOOD", "coord1": 47.2602295, "coord2": 8.8546598}}
,{"type": "Feature", "geometry": {"type": "Point", "coordinates": [4.0257535, 49.2569133]}, "properties": {"comparison": 11.6189500386, "Name": "Brasserie Conti", "type": "FOOD_RESTAURANT", "coord1": 49.2569133, "coord2": 4.0257535}}
,{"type": "Feature", "geometry": {"type": "Point", "coordinates": [6.8673953, 45.920925]}, "properties": {"comparison": 11.6619037897, "Name": "Le Refuge Payot", "type": "SHOP_MOTORCYCLE", "coord1": 45.920925, "coord2": 6.8673953}}
,{"type": "Feature", "geometry": {"type": "Point", "coordinates": [2.2956398, 48.8967114]}, "properties": {"comparison": 11.6619037897, "Name": "Docteur Scooter", "type": "SHOP_MOTORCYCLE", "coord1": 48.8967114, "coord2": 2.2956398}}
,{"type": "Feature", "geometry": {"type": "Point", "coordinates": [4.3717997, 50.8358065]}, "properties": {"comparison": 11.7046999107, "Name": "Cristal Coiff", "type": "SHOP_HAIRDRESSER", "coord1": 50.8358065, "coord2": 4.3717997}}
,{"type": "Feature", "geometry": {"type": "Point", "coordinates": [8.9122113, 49.1355114]}, "properties": {"comparison": 11.7046999107, "Name": "Schuhservice Holl", "type": "SHOP_DEPARTMENTSTORE", "coord1": 49.1355114, "coord2": 8.9122113}}
,{"type": "Feature", "geometry": {"type": "Point", "coordinates": [7.9077767, 47.3528808]}, "properties": {"comparison": 11.7046999107, "Name": "Chez SBB", "type": "FOOD_RESTAURANT", "coord1": 47.3528808, "coord2": 7.9077767}}
,{"type": "Feature", "geometry": {"type": "Point", "coordinates": [7.6089388, 43.7912431]}, "properties": {"comparison": 11.7046999107, "Name": "Pasticceria Sonia", "type": "SHOP_CONFECTIONERY", "coord1": 43.7912431, "coord2": 7.6089388}}
,{"type": "Feature", "geometry": {"type": "Point", "coordinates": [7.6087582, 43.7910501]}, "properties": {"comparison": 11.7046999107, "Name": "Ginatta", "type": "SHOP_BUTCHER", "coord1": 43.7910501, "coord2": 7.6087582}}
,{"type": "Feature", "geometry": {"type": "Point", "coordinates": [7.6091409, 43.7914692]}, "properties": {"comparison": 11.7046999107, "Name": "Intesa San Paolo", "type": "MONEY_BANK", "coord1": 43.7914692, "coord2": 7.6091409}}
,{"type": "Feature", "geometry": {"type": "Point", "coordinates": [8.7883992, 53.1035712]}, "properties": {"comparison": 11.7473401245, "Name": "Runde Ecke", "type": "FOOD_PUB", "coord1": 53.1035712, "coord2": 8.7883992}}
,{"type": "Feature", "geometry": {"type": "Point", "coordinates": [11.3376776, 44.5043599]}, "properties": {"comparison": 11.7473401245, "Name": "Giardino Graziella Fava", "type": "LANDUSE_GRASS", "coord1": 44.5043599, "coord2": 11.3376776}}
,{"type": "Feature", "geometry": {"type": "Point", "coordinates": [7.9077294, 47.3527064]}, "properties": {"comparison": 11.7473401245, "Name": "Chez SBB", "type": "FOOD_CAFE", "coord1": 47.3527064, "coord2": 7.9077294}}
,{"type": "Feature", "geometry": {"type": "Point", "coordinates": [11.477847, 48.1127497]}, "properties": {"comparison": 11.8321595662, "Name": "Hotel Restaurant Neumayr", "type": "ACCOMMO_HOTEL", "coord1": 48.1127497, "coord2": 11.477847}}
,{"type": "Feature", "geometry": {"type": "Point", "coordinates": [16.5480428, 59.6081936]}, "properties": {"comparison": 11.8321595662, "Name": "Musiker-brunnen", "type": "TOURIST_ATTRACTION", "coord1": 59.6081936, "coord2": 16.5480428}}
,{"type": "Feature", "geometry": {"type": "Point", "coordinates": [4.8726386, 45.5196544]}, "properties": {"comparison": 11.874342087, "Name": "Vienne", "type": "TRANSPORT_STATION", "coord1": 45.5196544, "coord2": 4.8726386}}
,{"type": "Feature", "geometry": {"type": "Point", "coordinates": [17.5585553, 46.7490068]}, "properties": {"comparison": 11.874342087, "Name": "\u00dczletsor", "type": "SHOP_DEPARTMENTSTORE", "coord1": 46.7490068, "coord2": 17.5585553}}
,{"type": "Feature", "geometry": {"type": "Point", "coordinates": [4.8726112, 45.5196795]}, "properties": {"comparison": 11.874342087, "Name": "Vienne", "type": "TRANSPORT_STATION", "coord1": 45.5196795, "coord2": 4.8726112}}
,{"type": "Feature", "geometry": {"type": "Point", "coordinates": [17.5582606, 46.7489821]}, "properties": {"comparison": 11.874342087, "Name": "Barbak\u00e1n K\u00e1v\u00e9z\u00f3", "type": "FOOD_CAFE", "coord1": 46.7489821, "coord2": 17.5582606}}
,{"type": "Feature", "geometry": {"type": "Point", "coordinates": [10.4194298, 54.1595392]}, "properties": {"comparison": 11.874342087, "Name": "Apotheke L\u00fcbsches Tor", "type": "HEALTH_PHARMACY", "coord1": 54.1595392, "coord2": 10.4194298}}
,{"type": "Feature", "geometry": {"type": "Point", "coordinates": [17.5589995, 46.7493672]}, "properties": {"comparison": 11.874342087, "Name": "SPAR", "type": "SHOP_SUPERMARKET", "coord1": 46.7493672, "coord2": 17.5589995}}
,{"type": "Feature", "geometry": {"type": "Point", "coordinates": [17.558212, 46.7491814]}, "properties": {"comparison": 11.9582607431, "Name": "Takar\u00e9ksz\u00f6vetkezet \u00e9s ATM", "type": "MONEY_BANK", "coord1": 46.7491814, "coord2": 17.558212}}
,{"type": "Feature", "geometry": {"type": "Point", "coordinates": [6.5719274, 51.3272098]}, "properties": {"comparison": 11.9582607431, "Name": "Ibis Budget Duesseldorf Messe Krefeld", "type": "ACCOMMO_HOTEL", "coord1": 51.3272098, "coord2": 6.5719274}}
,{"type": "Feature", "geometry": {"type": "Point", "coordinates": [13.37829, 52.5121223]}, "properties": {"comparison": 11.9582607431, "Name": "Mainhatten", "type": "FOOD_RESTAURANT", "coord1": 52.5121223, "coord2": 13.37829}}
,{"type": "Feature", "geometry": {"type": "Point", "coordinates": [9.7678096, 49.9612999]}, "properties": {"comparison": 12.0, "Name": "Raiffeisenbank Main-Spessart", "type": "MONEY_BANK", "coord1": 49.9612999, "coord2": 9.7678096}}
,{"type": "Feature", "geometry": {"type": "Point", "coordinates": [6.9509755, 48.2828953]}, "properties": {"comparison": 12.0, "Name": "Mister Tacos", "type": "FOOD_FASTFOOD", "coord1": 48.2828953, "coord2": 6.9509755}}
,{"type": "Feature", "geometry": {"type": "Point", "coordinates": [4.4720022, 51.9266646]}, "properties": {"comparison": 12.0, "Name": "Dr. J. E. Feisserkapel", "type": "POW_CHRISTIAN", "coord1": 51.9266646, "coord2": 4.4720022}}
,{"type": "Feature", "geometry": {"type": "Point", "coordinates": [8.5166265, 49.5103314]}, "properties": {"comparison": 12.0, "Name": "EP Fischer", "type": "SHOP_HIFI", "coord1": 49.5103314, "coord2": 8.5166265}}
,{"type": "Feature", "geometry": {"type": "Point", "coordinates": [4.0262087, 49.257391]}, "properties": {"comparison": 12.0, "Name": "Brasserie Flo", "type": "FOOD_RESTAURANT", "coord1": 49.257391, "coord2": 4.0262087}}
,{"type": "Feature", "geometry": {"type": "Point", "coordinates": [9.3773196, 47.564271]}, "properties": {"comparison": 12.0415945788, "Name": "s'L\u00e4deli", "type": "SHOP_GIFT", "coord1": 47.564271, "coord2": 9.3773196}}
,{"type": "Feature", "geometry": {"type": "Point", "coordinates": [5.9191534, 45.5723137]}, "properties": {"comparison": 12.0830459736, "Name": "Chamb\u00e9ry - Challes les Eaux", "type": "TRANSPORT_STATION", "coord1": 45.5723137, "coord2": 5.9191534}}
,{"type": "Feature", "geometry": {"type": "Point", "coordinates": [4.5089501, 51.9269144]}, "properties": {"comparison": 12.0830459736, "Name": "Bureau Taborstraat", "type": "AMENITY_POLICE", "coord1": 51.9269144, "coord2": 4.5089501}}
,{"type": "Feature", "geometry": {"type": "Point", "coordinates": [6.8671169, 45.9206491]}, "properties": {"comparison": 12.0830459736, "Name": "Millet", "type": "SHOP_MOTORCYCLE", "coord1": 45.9206491, "coord2": 6.8671169}}
,{"type": "Feature", "geometry": {"type": "Point", "coordinates": [9.7676853, 49.961651]}, "properties": {"comparison": 12.0830459736, "Name": "Der Geschenkladen", "type": "SHOP_GIFT", "coord1": 49.961651, "coord2": 9.7676853}}
,{"type": "Feature", "geometry": {"type": "Point", "coordinates": [10.1001374, 48.2228456]}, "properties": {"comparison": 12.0830459736, "Name": "DB", "type": "SHOP_KIOSK", "coord1": 48.2228456, "coord2": 10.1001374}}
,{"type": "Feature", "geometry": {"type": "Point", "coordinates": [8.5312579, 50.0639408]}, "properties": {"comparison": 12.124355653, "Name": "Tante Ju", "type": "FOOD_RESTAURANT", "coord1": 50.0639408, "coord2": 8.5312579}}
,{"type": "Feature", "geometry": {"type": "Point", "coordinates": [0.6975564, 47.3904675]}, "properties": {"comparison": 12.124355653, "Name": "Le Grenadier", "type": "FOOD_RESTAURANT", "coord1": 47.3904675, "coord2": 0.6975564}}
,{"type": "Feature", "geometry": {"type": "Point", "coordinates": [2.6554005, 48.8415074]}, "properties": {"comparison": 12.1655250606, "Name": "Mister Bed R\u00e9sidence", "type": "ACCOMMO_HOTEL", "coord1": 48.8415074, "coord2": 2.6554005}}
,{"type": "Feature", "geometry": {"type": "Point", "coordinates": [7.9641195, 49.2047916]}, "properties": {"comparison": 12.1655250606, "Name": "Lippok", "type": "SHOP_DEPARTMENTSTORE", "coord1": 49.2047916, "coord2": 7.9641195}}
,{"type": "Feature", "geometry": {"type": "Point", "coordinates": [4.8727249, 45.5195925]}, "properties": {"comparison": 12.2065556157, "Name": "Vienne", "type": "TRANSPORT_STATION", "coord1": 45.5195925, "coord2": 4.8727249}}
,{"type": "Feature", "geometry": {"type": "Point", "coordinates": [10.099962, 48.2226716]}, "properties": {"comparison": 12.2065556157, "Name": "Illertissen", "type": "TRANSPORT_STATION", "coord1": 48.2226716, "coord2": 10.099962}}
,{"type": "Feature", "geometry": {"type": "Point", "coordinates": [2.3801301, 48.8274877]}, "properties": {"comparison": 12.2065556157, "Name": "Lamarck A (Universit\u00e9 Paris Diderot)", "type": "EDUCATION_UNIVERSITY", "coord1": 48.8274877, "coord2": 2.3801301}}
,{"type": "Feature", "geometry": {"type": "Point", "coordinates": [14.4377381, 50.0807176]}, "properties": {"comparison": 12.2474487139, "Name": "Poliklinika AGEL", "type": "HEALTH_HOSPITAL", "coord1": 50.0807176, "coord2": 14.4377381}}
,{"type": "Feature", "geometry": {"type": "Point", "coordinates": [5.5637185, 50.6392097]}, "properties": {"comparison": 12.2474487139, "Name": "Coll\u00e8ge Saint-Servais", "type": "EDUCATION_SCHOOL", "coord1": 50.6392097, "coord2": 5.5637185}}
,{"type": "Feature", "geometry": {"type": "Point", "coordinates": [4.3233798, 52.0692228]}, "properties": {"comparison": 12.2474487139, "Name": "Hans Struijk", "type": "SHOP_BICYCLE", "coord1": 52.0692228, "coord2": 4.3233798}}
,{"type": "Feature", "geometry": {"type": "Point", "coordinates": [12.998601, 55.6113629]}, "properties": {"comparison": 12.2882057274, "Name": "Finlands honor\u00e4ra generalkonsulat", "type": "POI_EMBASSY", "coord1": 55.6113629, "coord2": 12.998601}}
,{"type": "Feature", "geometry": {"type": "Point", "coordinates": [7.6095969, 43.7920757]}, "properties": {"comparison": 12.3288280059, "Name": "American Bar", "type": "FOOD_BAR", "coord1": 43.7920757, "coord2": 7.6095969}}
,{"type": "Feature", "geometry": {"type": "Point", "coordinates": [7.6092592, 43.7916496]}, "properties": {"comparison": 12.3288280059, "Name": "Quaglia", "type": "HEALTH_PHARMACY", "coord1": 43.7916496, "coord2": 7.6092592}}
,{"type": "Feature", "geometry": {"type": "Point", "coordinates": [13.24733, 52.7547803]}, "properties": {"comparison": 12.3288280059, "Name": "Postbank", "type": "MONEY_BANK", "coord1": 52.7547803, "coord2": 13.24733}}
,{"type": "Feature", "geometry": {"type": "Point", "coordinates": [17.55914, 46.749]}, "properties": {"comparison": 12.3693168769, "Name": "Makkos vend\u00e9gl\u0151", "type": "FOOD_RESTAURANT", "coord1": 46.749, "coord2": 17.55914}}
,{"type": "Feature", "geometry": {"type": "Point", "coordinates": [9.97859, 52.3762672]}, "properties": {"comparison": 12.3693168769, "Name": "EuroShop", "type": "SHOP_DEPARTMENTSTORE", "coord1": 52.3762672, "coord2": 9.97859}}
,{"type": "Feature", "geometry": {"type": "Point", "coordinates": [4.8727977, 45.5195447]}, "properties": {"comparison": 12.3693168769, "Name": "Vienne", "type": "TRANSPORT_STATION", "coord1": 45.5195447, "coord2": 4.8727977}}
,{"type": "Feature", "geometry": {"type": "Point", "coordinates": [9.2264601, 49.1941544]}, "properties": {"comparison": 12.409673646, "Name": "Ballei Restaurant", "type": "FOOD_RESTAURANT", "coord1": 49.1941544, "coord2": 9.2264601}}
,{"type": "Feature", "geometry": {"type": "Point", "coordinates": [8.5193299, 47.3867873]}, "properties": {"comparison": 12.409673646, "Name": "Z\u00fcrcher Kantonalbank", "type": "MONEY_BANK", "coord1": 47.3867873, "coord2": 8.5193299}}
,{"type": "Feature", "geometry": {"type": "Point", "coordinates": [7.60921, 43.7919484]}, "properties": {"comparison": 12.449899598, "Name": "Casella", "type": "SHOP_BOOK", "coord1": 43.7919484, "coord2": 7.60921}}
,{"type": "Feature", "geometry": {"type": "Point", "coordinates": [11.6067198, 48.0531669]}, "properties": {"comparison": 12.4899959968, "Name": "Penny Markt", "type": "SHOP_SUPERMARKET", "coord1": 48.0531669, "coord2": 11.6067198}}
,{"type": "Feature", "geometry": {"type": "Point", "coordinates": [9.099061, 49.2373305]}, "properties": {"comparison": 12.4899959968, "Name": "La Piazza", "type": "FOOD_CAFE", "coord1": 49.2373305, "coord2": 9.099061}}
,{"type": "Feature", "geometry": {"type": "Point", "coordinates": [10.9687517, 49.0286241]}, "properties": {"comparison": 12.4899959968, "Name": "R\u00f6mer", "type": "HEALTH_PHARMACY", "coord1": 49.0286241, "coord2": 10.9687517}}
,{"type": "Feature", "geometry": {"type": "Point", "coordinates": [4.509683, 51.927174]}, "properties": {"comparison": 12.4899959968, "Name": "Curry's", "type": "FOOD_RESTAURANT", "coord1": 51.927174, "coord2": 4.509683}}
,{"type": "Feature", "geometry": {"type": "Point", "coordinates": [8.5164824, 49.5102531]}, "properties": {"comparison": 12.4899959968, "Name": "Herrwerth M\u00f6bel und Holzbearbeitung", "type": "SHOP_DEPARTMENTSTORE", "coord1": 49.5102531, "coord2": 8.5164824}}
,{"type": "Feature", "geometry": {"type": "Point", "coordinates": [11.0692264, 49.4408542]}, "properties": {"comparison": 12.4899959968, "Name": "Habba Habba", "type": "FOOD_RESTAURANT", "coord1": 49.4408542, "coord2": 11.0692264}}
,{"type": "Feature", "geometry": {"type": "Point", "coordinates": [10.0994493, 48.2224396]}, "properties": {"comparison": 12.4899959968, "Name": "Dr. Axel Schouba/Dr. Stephanie Aubele", "type": "HEALTH_DENTIST", "coord1": 48.2224396, "coord2": 10.0994493}}
,{"type": "Feature", "geometry": {"type": "Point", "coordinates": [8.9909689, 49.6578197]}, "properties": {"comparison": 12.56980509, "Name": "Evangelischer Kindergarten Regenbogen", "type": "EDUCATION_NURSERY", "coord1": 49.6578197, "coord2": 8.9909689}}
,{"type": "Feature", "geometry": {"type": "Point", "coordinates": [7.6109979, 47.5925569]}, "properties": {"comparison": 12.56980509, "Name": "Reno", "type": "SHOP_SHOES", "coord1": 47.5925569, "coord2": 7.6109979}}
,{"type": "Feature", "geometry": {"type": "Point", "coordinates": [17.558333, 46.7485258]}, "properties": {"comparison": 12.56980509, "Name": "M\u00e1ty\u00e1s Kir\u00e1ly Gimn\u00e1zium", "type": "EDUCATION_SCHOOL", "coord1": 46.7485258, "coord2": 17.558333}}
,{"type": "Feature", "geometry": {"type": "Point", "coordinates": [7.6108846, 47.5928094]}, "properties": {"comparison": 12.56980509, "Name": "Kaufring", "type": "SHOP_SUPERMARKET", "coord1": 47.5928094, "coord2": 7.6108846}}
,{"type": "Feature", "geometry": {"type": "Point", "coordinates": [9.2075869, 49.1431835]}, "properties": {"comparison": 12.56980509, "Name": "Heilbronn Hauptbahnhof", "type": "TRANSPORT_STATION", "coord1": 49.1431835, "coord2": 9.2075869}}
,{"type": "Feature", "geometry": {"type": "Point", "coordinates": [9.2076637, 49.1431403]}, "properties": {"comparison": 12.56980509, "Name": "Heilbronn Hauptbahnhof", "type": "TRANSPORT_STATION", "coord1": 49.1431403, "coord2": 9.2076637}}
,{"type": "Feature", "geometry": {"type": "Point", "coordinates": [8.5285103, 47.3651502]}, "properties": {"comparison": 12.6491106407, "Name": "Kantonsschule Freudenberg", "type": "EDUCATION_SCHOOL", "coord1": 47.3651502, "coord2": 8.5285103}}
,{"type": "Feature", "geometry": {"type": "Point", "coordinates": [13.5381318, 52.4338025]}, "properties": {"comparison": 12.6491106407, "Name": "umfrisiert", "type": "SHOP_HAIRDRESSER", "coord1": 52.4338025, "coord2": 13.5381318}}
,{"type": "Feature", "geometry": {"type": "Point", "coordinates": [13.247464, 52.754931]}, "properties": {"comparison": 12.6491106407, "Name": "Der Havelb\u00e4cker", "type": "SHOP_BAKERY", "coord1": 52.754931, "coord2": 13.247464}}
,{"type": "Feature", "geometry": {"type": "Point", "coordinates": [12.5078587, 41.8942748]}, "properties": {"comparison": 12.6491106407, "Name": "Roma Tempus", "type": "ACCOMMO_HOSTEL", "coord1": 41.8942748, "coord2": 12.5078587}}
,{"type": "Feature", "geometry": {"type": "Point", "coordinates": [8.9956618, 48.7054868]}, "properties": {"comparison": 12.6491106407, "Name": "M\u00fccahit Senel B\u00e4ckerei Lieder", "type": "SHOP_BAKERY", "coord1": 48.7054868, "coord2": 8.9956618}}
,{"type": "Feature", "geometry": {"type": "Point", "coordinates": [16.3444081, 48.2446724]}, "properties": {"comparison": 12.6885775404, "Name": "Oberd\u00f6bling", "type": "TRANSPORT_TRAMSTOP", "coord1": 48.2446724, "coord2": 16.3444081}}
,{"type": "Feature", "geometry": {"type": "Point", "coordinates": [9.2076594, 49.1430999]}, "properties": {"comparison": 12.6885775404, "Name": "Heilbronn Hauptbahnhof", "type": "TRANSPORT_STATION", "coord1": 49.1430999, "coord2": 9.2076594}}
,{"type": "Feature", "geometry": {"type": "Point", "coordinates": [12.0884754, 54.1750795]}, "properties": {"comparison": 12.6885775404, "Name": "Drei Klaashahns", "type": "TOURIST_ART", "coord1": 54.1750795, "coord2": 12.0884754}}
,{"type": "Feature", "geometry": {"type": "Point", "coordinates": [7.6099384, 43.7925638]}, "properties": {"comparison": 12.6885775404, "Name": "Ventimiglia", "type": "TRANSPORT_STATION", "coord1": 43.7925638, "coord2": 7.6099384}}
,{"type": "Feature", "geometry": {"type": "Point", "coordinates": [7.6109423, 47.5932555]}, "properties": {"comparison": 12.6885775404, "Name": "Alte Zunft", "type": "FOOD_RESTAURANT", "coord1": 47.5932555, "coord2": 7.6109423}}
,{"type": "Feature", "geometry": {"type": "Point", "coordinates": [9.2076988, 49.1430687]}, "properties": {"comparison": 12.6885775404, "Name": "Heilbronn Hauptbahnhof", "type": "TRANSPORT_STATION", "coord1": 49.1430687, "coord2": 9.2076988}}
,{"type": "Feature", "geometry": {"type": "Point", "coordinates": [9.9757741, 52.3790672]}, "properties": {"comparison": 12.6885775404, "Name": "Bestattungen Meinig", "type": "SHOP_DEPARTMENTSTORE", "coord1": 52.3790672, "coord2": 9.9757741}}
,{"type": "Feature", "geometry": {"type": "Point", "coordinates": [9.0880609, 47.2998894]}, "properties": {"comparison": 12.6885775404, "Name": "Dr. R\u00fcbsaamen", "type": "HEALTH_DOCTORS", "coord1": 47.2998894, "coord2": 9.0880609}}
,{"type": "Feature", "geometry": {"type": "Point", "coordinates": [10.1073451, 48.7843775]}, "properties": {"comparison": 12.6885775404, "Name": "Wirtshaus Scheererm\u00fchle El Molino", "type": "FOOD_RESTAURANT", "coord1": 48.7843775, "coord2": 10.1073451}}
,{"type": "Feature", "geometry": {"type": "Point", "coordinates": [9.2077547, 49.1429673]}, "properties": {"comparison": 12.7279220614, "Name": "Heilbronn Hauptbahnhof", "type": "TRANSPORT_STATION", "coord1": 49.1429673, "coord2": 9.2077547}}
,{"type": "Feature", "geometry": {"type": "Point", "coordinates": [13.5795572, 51.1241226]}, "properties": {"comparison": 12.7671453348, "Name": "Buchhandlung Ernst Tharandt", "type": "SHOP_BOOK", "coord1": 51.1241226, "coord2": 13.5795572}}
,{"type": "Feature", "geometry": {"type": "Point", "coordinates": [16.3255871, 48.3102465]}, "properties": {"comparison": 12.7671453348, "Name": "Manda", "type": "FOOD_RESTAURANT", "coord1": 48.3102465, "coord2": 16.3255871}}
,{"type": "Feature", "geometry": {"type": "Point", "coordinates": [30.3268918, 59.9168908]}, "properties": {"comparison": 12.7671453348, "Name": "\u0422\u043a\u0430\u043d\u0438\u044f", "type": "SHOP_CLOTHES", "coord1": 59.9168908, "coord2": 30.3268918}}
,{"type": "Feature", "geometry": {"type": "Point", "coordinates": [11.5509244, 48.142165]}, "properties": {"comparison": 12.7671453348, "Name": "McDonald's", "type": "FOOD_FASTFOOD", "coord1": 48.142165, "coord2": 11.5509244}}
,{"type": "Feature", "geometry": {"type": "Point", "coordinates": [8.8551508, 47.2602742]}, "properties": {"comparison": 12.8062484749, "Name": "R\u00fcti ZH", "type": "TRANSPORT_STATION", "coord1": 47.2602742, "coord2": 8.8551508}}
,{"type": "Feature", "geometry": {"type": "Point", "coordinates": [10.099305, 48.2224349]}, "properties": {"comparison": 12.8062484749, "Name": "Dr. Christoph Reichert", "type": "HEALTH_DOCTORS", "coord1": 48.2224349, "coord2": 10.099305}}
,{"type": "Feature", "geometry": {"type": "Point", "coordinates": [8.2097886, 44.8961728]}, "properties": {"comparison": 12.8062484749, "Name": "Punto Sma City", "type": "SHOP_SUPERMARKET", "coord1": 44.8961728, "coord2": 8.2097886}}
,{"type": "Feature", "geometry": {"type": "Point", "coordinates": [8.2095767, 44.8964285]}, "properties": {"comparison": 12.8062484749, "Name": "Osteria Della Piazza", "type": "FOOD_RESTAURANT", "coord1": 44.8964285, "coord2": 8.2095767}}
,{"type": "Feature", "geometry": {"type": "Point", "coordinates": [13.7230613, 51.0553566]}, "properties": {"comparison": 12.8062484749, "Name": "Bahnhof Mitte / Jahnstra\u00dfe", "type": "TRANSPORT_TRAMSTOP", "coord1": 51.0553566, "coord2": 13.7230613}}
,{"type": "Feature", "geometry": {"type": "Point", "coordinates": [-1.9801021, 43.3135376]}, "properties": {"comparison": 12.8062484749, "Name": "Centro de Salud Amara Centro", "type": "HEALTH_DOCTORS", "coord1": 43.3135376, "coord2": -1.9801021}}
,{"type": "Feature", "geometry": {"type": "Point", "coordinates": [10.0991578, 48.2224288]}, "properties": {"comparison": 12.8062484749, "Name": "Apotheke am Bahnhof", "type": "HEALTH_PHARMACY", "coord1": 48.2224288, "coord2": 10.0991578}}
,{"type": "Feature", "geometry": {"type": "Point", "coordinates": [9.2077138, 49.142746]}, "properties": {"comparison": 12.8452325787, "Name": "Yorma's", "type": "SHOP_CONVENIENCE", "coord1": 49.142746, "coord2": 9.2077138}}
,{"type": "Feature", "geometry": {"type": "Point", "coordinates": [9.2077089, 49.1426345]}, "properties": {"comparison": 12.8452325787, "Name": "Rang Dong", "type": "FOOD_RESTAURANT", "coord1": 49.1426345, "coord2": 9.2077089}}
,{"type": "Feature", "geometry": {"type": "Point", "coordinates": [5.5632815, 50.6382111]}, "properties": {"comparison": 12.8452325787, "Name": "Les fous d'en face", "type": "FOOD_BAR", "coord1": 50.6382111, "coord2": 5.5632815}}
,{"type": "Feature", "geometry": {"type": "Point", "coordinates": [12.640539, 47.8674575]}, "properties": {"comparison": 12.8452325787, "Name": "Andrea`s Hairdesign", "type": "SHOP_HAIRDRESSER", "coord1": 47.8674575, "coord2": 12.640539}}
,{"type": "Feature", "geometry": {"type": "Point", "coordinates": [9.2077894, 49.1429327]}, "properties": {"comparison": 12.8452325787, "Name": "Heilbronn Hauptbahnhof", "type": "TRANSPORT_STATION", "coord1": 49.1429327, "coord2": 9.2077894}}
,{"type": "Feature", "geometry": {"type": "Point", "coordinates": [7.6122479, 47.5939138]}, "properties": {"comparison": 12.8452325787, "Name": "Tagesklinik Chirurgie Dr. Herold", "type": "HEALTH_HOSPITAL", "coord1": 47.5939138, "coord2": 7.6122479}}
,{"type": "Feature", "geometry": {"type": "Point", "coordinates": [9.2077382, 49.1426982]}, "properties": {"comparison": 12.8452325787, "Name": "B\u00e4cker", "type": "SHOP_BAKERY", "coord1": 49.1426982, "coord2": 9.2077382}}
,{"type": "Feature", "geometry": {"type": "Point", "coordinates": [8.8778247, 49.2500877]}, "properties": {"comparison": 12.8840987267, "Name": "Zentrum f\u00fcr Altenhilfe Sinsheim", "type": "AMENITY_PUBLICBUILDING", "coord1": 49.2500877, "coord2": 8.8778247}}
,{"type": "Feature", "geometry": {"type": "Point", "coordinates": [16.3253505, 48.3100635]}, "properties": {"comparison": 12.8840987267, "Name": "Erste Bank", "type": "MONEY_BANK", "coord1": 48.3100635, "coord2": 16.3253505}}
,{"type": "Feature", "geometry": {"type": "Point", "coordinates": [13.5799821, 51.1240891]}, "properties": {"comparison": 12.8840987267, "Name": "Foto-Krug", "type": "SHOP_DEPARTMENTSTORE", "coord1": 51.1240891, "coord2": 13.5799821}}
,{"type": "Feature", "geometry": {"type": "Point", "coordinates": [9.0860484, 47.2989751]}, "properties": {"comparison": 12.8840987267, "Name": "R\u00fcegg & Gartenbau", "type": "SHOP_FLORIST", "coord1": 47.2989751, "coord2": 9.0860484}}
,{"type": "Feature", "geometry": {"type": "Point", "coordinates": [5.9728405, 50.6611646]}, "properties": {"comparison": 12.9228479833, "Name": "CBC", "type": "MONEY_BANK", "coord1": 50.6611646, "coord2": 5.9728405}}
,{"type": "Feature", "geometry": {"type": "Point", "coordinates": [9.9757508, 54.4084109]}, "properties": {"comparison": 12.9228479833, "Name": "Jan-Ove Nissen", "type": "HEALTH_DENTIST", "coord1": 54.4084109, "coord2": 9.9757508}}
,{"type": "Feature", "geometry": {"type": "Point", "coordinates": [9.7142006, 52.3692388]}, "properties": {"comparison": 12.9228479833, "Name": "CUBA's", "type": "FOOD_RESTAURANT", "coord1": 52.3692388, "coord2": 9.7142006}}
,{"type": "Feature", "geometry": {"type": "Point", "coordinates": [9.975755, 54.4084561]}, "properties": {"comparison": 12.9228479833, "Name": "Maak (Allgemeinmedizin)", "type": "HEALTH_DOCTORS", "coord1": 54.4084561, "coord2": 9.975755}}
,{"type": "Feature", "geometry": {"type": "Point", "coordinates": [6.866995, 45.9204649]}, "properties": {"comparison": 12.9228479833, "Name": "La Moraine", "type": "FOOD_RESTAURANT", "coord1": 45.9204649, "coord2": 6.866995}}
,{"type": "Feature", "geometry": {"type": "Point", "coordinates": [7.610572, 43.7912665]}, "properties": {"comparison": 12.9228479833, "Name": "Papa Pizza", "type": "FOOD_RESTAURANT", "coord1": 43.7912665, "coord2": 7.610572}}
,{"type": "Feature", "geometry": {"type": "Point", "coordinates": [9.975752, 54.408433]}, "properties": {"comparison": 12.9228479833, "Name": "Christina Will", "type": "HEALTH_DENTIST", "coord1": 54.408433, "coord2": 9.975752}}
,{"type": "Feature", "geometry": {"type": "Point", "coordinates": [9.9761366, 52.3791346]}, "properties": {"comparison": 12.9228479833, "Name": "Hairkiller", "type": "SHOP_HAIRDRESSER", "coord1": 52.3791346, "coord2": 9.9761366}}
,{"type": "Feature", "geometry": {"type": "Point", "coordinates": [2.7174313, 39.7668676]}, "properties": {"comparison": 12.9228479833, "Name": "capella de les Escol\u00e0pies", "type": "POW_CHRISTIAN", "coord1": 39.7668676, "coord2": 2.7174313}}
,{"type": "Feature", "geometry": {"type": "Point", "coordinates": [8.2078292, 44.8952973]}, "properties": {"comparison": 12.9614813968, "Name": "Piazza Guglielmo Marconi", "type": "TOURIST_FOUNTAIN", "coord1": 44.8952973, "coord2": 8.2078292}}
,{"type": "Feature", "geometry": {"type": "Point", "coordinates": [11.6138719, 48.0658021]}, "properties": {"comparison": 12.9614813968, "Name": "Edeka", "type": "SHOP_SUPERMARKET", "coord1": 48.0658021, "coord2": 11.6138719}}
,{"type": "Feature", "geometry": {"type": "Point", "coordinates": [6.9808226, 43.5489381]}, "properties": {"comparison": 12.9614813968, "Name": "Restaurant Le Saint-Barth", "type": "FOOD_RESTAURANT", "coord1": 43.5489381, "coord2": 6.9808226}}
,{"type": "Feature", "geometry": {"type": "Point", "coordinates": [-1.9809486, 43.3133974]}, "properties": {"comparison": 12.9614813968, "Name": "Isla del Sol", "type": "FOOD_FASTFOOD", "coord1": 43.3133974, "coord2": -1.9809486}}
,{"type": "Feature", "geometry": {"type": "Point", "coordinates": [-1.9813286, 43.3135044]}, "properties": {"comparison": 12.9614813968, "Name": "Iru\u00f1a", "type": "FOOD_BAR", "coord1": 43.3135044, "coord2": -1.9813286}}
,{"type": "Feature", "geometry": {"type": "Point", "coordinates": [-0.1541506, 51.4414896]}, "properties": {"comparison": 12.9614813968, "Name": "Bucci", "type": "FOOD_RESTAURANT", "coord1": 51.4414896, "coord2": -0.1541506}}
,{"type": "Feature", "geometry": {"type": "Point", "coordinates": [-1.9808542, 43.313972]}, "properties": {"comparison": 13.0384048104, "Name": "Bellas Artes", "type": "ACCOMMO_HOSTEL", "coord1": 43.313972, "coord2": -1.9808542}}
,{"type": "Feature", "geometry": {"type": "Point", "coordinates": [37.6617363, 55.7538185]}, "properties": {"comparison": 13.0384048104, "Name": "\u0414\u0430\u0431\u043b\u0431\u0438", "type": "FOOD_CAFE", "coord1": 55.7538185, "coord2": 37.6617363}}
,{"type": "Feature", "geometry": {"type": "Point", "coordinates": [7.6101679, 47.5935804]}, "properties": {"comparison": 13.0384048104, "Name": "Ott's Hotel - Restaurant Leopoldsh\u00f6he", "type": "FOOD_RESTAURANT", "coord1": 47.5935804, "coord2": 7.6101679}}
,{"type": "Feature", "geometry": {"type": "Point", "coordinates": [2.283087, 48.9040478]}, "properties": {"comparison": 13.0384048104, "Name": "Lyc\u00e9e professionnel De Prony (Site Maine)", "type": "EDUCATION_SCHOOL", "coord1": 48.9040478, "coord2": 2.283087}}
,{"type": "Feature", "geometry": {"type": "Point", "coordinates": [7.6106509, 43.7915844]}, "properties": {"comparison": 13.0384048104, "Name": "Giuseppe", "type": "ACCOMMO_HOTEL", "coord1": 43.7915844, "coord2": 7.6106509}}
,{"type": "Feature", "geometry": {"type": "Point", "coordinates": [16.6365384, 49.2025221]}, "properties": {"comparison": 13.0766968306, "Name": "V\u00e1hala & spol.", "type": "SHOP_BUTCHER", "coord1": 49.2025221, "coord2": 16.6365384}}
,{"type": "Feature", "geometry": {"type": "Point", "coordinates": [19.4537108, 51.7788687]}, "properties": {"comparison": 13.0766968306, "Name": "Ogrodowa - Nowomiejska", "type": "TRANSPORT_TRAMSTOP", "coord1": 51.7788687, "coord2": 19.4537108}}
,{"type": "Feature", "geometry": {"type": "Point", "coordinates": [9.9691791, 53.5639942]}, "properties": {"comparison": 13.0766968306, "Name": "Le Crobag", "type": "SHOP_BAKERY", "coord1": 53.5639942, "coord2": 9.9691791}}
,{"type": "Feature", "geometry": {"type": "Point", "coordinates": [24.9343565, 60.2008073]}, "properties": {"comparison": 13.0766968306, "Name": "South China", "type": "FOOD_RESTAURANT", "coord1": 60.2008073, "coord2": 24.9343565}}
,{"type": "Feature", "geometry": {"type": "Point", "coordinates": [-1.9811168, 43.3135797]}, "properties": {"comparison": 13.0766968306, "Name": "Chutney gastrobar", "type": "FOOD_RESTAURANT", "coord1": 43.3135797, "coord2": -1.9811168}}
,{"type": "Feature", "geometry": {"type": "Point", "coordinates": [16.8901221, 48.7546919]}, "properties": {"comparison": 13.0766968306, "Name": "Park", "type": "FOOD_RESTAURANT", "coord1": 48.7546919, "coord2": 16.8901221}}
,{"type": "Feature", "geometry": {"type": "Point", "coordinates": [8.3477093, 47.3516042]}, "properties": {"comparison": 13.0766968306, "Name": "Reusstal Sport", "type": "SHOP_MOTORCYCLE", "coord1": 47.3516042, "coord2": 8.3477093}}
,{"type": "Feature", "geometry": {"type": "Point", "coordinates": [2.7165512, 39.7672753]}, "properties": {"comparison": 13.1148770486, "Name": "Luna 36", "type": "FOOD_RESTAURANT", "coord1": 39.7672753, "coord2": 2.7165512}}
,{"type": "Feature", "geometry": {"type": "Point", "coordinates": [6.9806645, 43.5492374]}, "properties": {"comparison": 13.152946438, "Name": "Les D\u00e9lices de la Bocca", "type": "FOOD_RESTAURANT", "coord1": 43.5492374, "coord2": 6.9806645}}
,{"type": "Feature", "geometry": {"type": "Point", "coordinates": [8.1730146, 47.390255]}, "properties": {"comparison": 13.152946438, "Name": "Denner", "type": "SHOP_SUPERMARKET", "coord1": 47.390255, "coord2": 8.1730146}}
,{"type": "Feature", "geometry": {"type": "Point", "coordinates": [8.1722712, 47.3899848]}, "properties": {"comparison": 13.152946438, "Name": "Raiffeisenbank Lenzburg", "type": "MONEY_BANK", "coord1": 47.3899848, "coord2": 8.1722712}}
,{"type": "Feature", "geometry": {"type": "Point", "coordinates": [16.636631, 49.20246]}, "properties": {"comparison": 13.152946438, "Name": "Pek\u00e1rny Blansko", "type": "SHOP_BAKERY", "coord1": 49.20246, "coord2": 16.636631}}
,{"type": "Feature", "geometry": {"type": "Point", "coordinates": [-1.981332, 43.313119]}, "properties": {"comparison": 13.152946438, "Name": "Ertzaintza Amara", "type": "AMENITY_POLICE", "coord1": 43.313119, "coord2": -1.981332}}
,{"type": "Feature", "geometry": {"type": "Point", "coordinates": [11.1334913, 49.4608841]}, "properties": {"comparison": 13.152946438, "Name": "Sparda-Bank Gesch\u00e4ftsstelle M\u00f6geldorf", "type": "MONEY_BANK", "coord1": 49.4608841, "coord2": 11.1334913}}
,{"type": "Feature", "geometry": {"type": "Point", "coordinates": [8.1727212, 47.3899731]}, "properties": {"comparison": 13.152946438, "Name": "Vallone", "type": "SHOP_HIFI", "coord1": 47.3899731, "coord2": 8.1727212}}
,{"type": "Feature", "geometry": {"type": "Point", "coordinates": [9.4469298, 51.3113595]}, "properties": {"comparison": 13.152946438, "Name": "Kassel-Wilhelmsh\u00f6he", "type": "TRANSPORT_STATION", "coord1": 51.3113595, "coord2": 9.4469298}}
,{"type": "Feature", "geometry": {"type": "Point", "coordinates": [13.0779696, 54.3087773]}, "properties": {"comparison": 13.1909059583, "Name": "Stralsund Hbf", "type": "TRANSPORT_STATION", "coord1": 54.3087773, "coord2": 13.0779696}}
,{"type": "Feature", "geometry": {"type": "Point", "coordinates": [8.2080607, 44.8956187]}, "properties": {"comparison": 13.1909059583, "Name": "Capolinea", "type": "FOOD_CAFE", "coord1": 44.8956187, "coord2": 8.2080607}}
,{"type": "Feature", "geometry": {"type": "Point", "coordinates": [13.0778593, 54.3087133]}, "properties": {"comparison": 13.1909059583, "Name": "D\u00f6ner Express", "type": "FOOD_FASTFOOD", "coord1": 54.3087133, "coord2": 13.0778593}}
,{"type": "Feature", "geometry": {"type": "Point", "coordinates": [13.0776314, 54.3088361]}, "properties": {"comparison": 13.1909059583, "Name": "k presse+buch", "type": "SHOP_BOOK", "coord1": 54.3088361, "coord2": 13.0776314}}
,{"type": "Feature", "geometry": {"type": "Point", "coordinates": [13.0778238, 54.3087624]}, "properties": {"comparison": 13.1909059583, "Name": "Kiosk", "type": "FOOD_CAFE", "coord1": 54.3087624, "coord2": 13.0778238}}
,{"type": "Feature", "geometry": {"type": "Point", "coordinates": [13.078879, 54.3077612]}, "properties": {"comparison": 13.1909059583, "Name": "Stralsund Hbf", "type": "TRANSPORT_STATION", "coord1": 54.3077612, "coord2": 13.078879}}
,{"type": "Feature", "geometry": {"type": "Point", "coordinates": [13.0779869, 54.3089448]}, "properties": {"comparison": 13.1909059583, "Name": "DB Reisezentrum", "type": "TOURIST_INFORMATION", "coord1": 54.3089448, "coord2": 13.0779869}}
,{"type": "Feature", "geometry": {"type": "Point", "coordinates": [13.2599605, 53.5598315]}, "properties": {"comparison": 13.1909059583, "Name": "Kita \"Regenbogenhaus\"", "type": "EDUCATION_NURSERY", "coord1": 53.5598315, "coord2": 13.2599605}}
,{"type": "Feature", "geometry": {"type": "Point", "coordinates": [13.0790531, 54.3077981]}, "properties": {"comparison": 13.1909059583, "Name": "Stralsund Hbf", "type": "TRANSPORT_STATION", "coord1": 54.3077981, "coord2": 13.0790531}}
,{"type": "Feature", "geometry": {"type": "Point", "coordinates": [7.6105718, 47.5920637]}, "properties": {"comparison": 13.1909059583, "Name": "Hair cut corner", "type": "SHOP_HAIRDRESSER", "coord1": 47.5920637, "coord2": 7.6105718}}
,{"type": "Feature", "geometry": {"type": "Point", "coordinates": [13.0775467, 54.3089478]}, "properties": {"comparison": 13.1909059583, "Name": "Lila B\u00e4cker", "type": "SHOP_BAKERY", "coord1": 54.3089478, "coord2": 13.0775467}}
,{"type": "Feature", "geometry": {"type": "Point", "coordinates": [13.0777814, 54.308803]}, "properties": {"comparison": 13.1909059583, "Name": "McDonald's", "type": "FOOD_FASTFOOD", "coord1": 54.308803, "coord2": 13.0777814}}
,{"type": "Feature", "geometry": {"type": "Point", "coordinates": [13.0781864, 54.3087706]}, "properties": {"comparison": 13.1909059583, "Name": "Rewe Mini-Markt", "type": "SHOP_CONVENIENCE", "coord1": 54.3087706, "coord2": 13.0781864}}
,{"type": "Feature", "geometry": {"type": "Point", "coordinates": [13.0786318, 54.3077002]}, "properties": {"comparison": 13.1909059583, "Name": "Stralsund Hbf", "type": "TRANSPORT_STATION", "coord1": 54.3077002, "coord2": 13.0786318}}
,{"type": "Feature", "geometry": {"type": "Point", "coordinates": [16.3250527, 48.3100138]}, "properties": {"comparison": 13.1909059583, "Name": "Liska", "type": "SHOP_CLOTHES", "coord1": 48.3100138, "coord2": 16.3250527}}
,{"type": "Feature", "geometry": {"type": "Point", "coordinates": [13.0788055, 54.3077441]}, "properties": {"comparison": 13.1909059583, "Name": "Stralsund Hbf", "type": "TRANSPORT_STATION", "coord1": 54.3077441, "coord2": 13.0788055}}
,{"type": "Feature", "geometry": {"type": "Point", "coordinates": [13.078537, 54.3093801]}, "properties": {"comparison": 13.2287565553, "Name": "Loreano", "type": "FOOD_CAFE", "coord1": 54.3093801, "coord2": 13.078537}}
,{"type": "Feature", "geometry": {"type": "Point", "coordinates": [5.9727823, 50.6605208]}, "properties": {"comparison": 13.2287565553, "Name": "Oph\u00e9ly'Z", "type": "SHOP_CLOTHES", "coord1": 50.6605208, "coord2": 5.9727823}}
,{"type": "Feature", "geometry": {"type": "Point", "coordinates": [13.0794932, 54.3089366]}, "properties": {"comparison": 13.2287565553, "Name": "InterCityHotel", "type": "ACCOMMO_HOTEL", "coord1": 54.3089366, "coord2": 13.0794932}}
,{"type": "Feature", "geometry": {"type": "Point", "coordinates": [16.1785557, 48.2080623]}, "properties": {"comparison": 13.2287565553, "Name": "Eurospar", "type": "SHOP_SUPERMARKET", "coord1": 48.2080623, "coord2": 16.1785557}}
,{"type": "Feature", "geometry": {"type": "Point", "coordinates": [13.0783324, 54.3093945]}, "properties": {"comparison": 13.2287565553, "Name": "Bahnhof-Apotheke", "type": "HEALTH_PHARMACY", "coord1": 54.3093945, "coord2": 13.0783324}}
,{"type": "Feature", "geometry": {"type": "Point", "coordinates": [13.0788527, 54.309363]}, "properties": {"comparison": 13.2287565553, "Name": "Sparkasse Vorpommern", "type": "MONEY_BANK", "coord1": 54.309363, "coord2": 13.0788527}}
,{"type": "Feature", "geometry": {"type": "Point", "coordinates": [13.0786252, 54.3089489]}, "properties": {"comparison": 13.2287565553, "Name": "Sparda Bank", "type": "MONEY_BANK", "coord1": 54.3089489, "coord2": 13.0786252}}
,{"type": "Feature", "geometry": {"type": "Point", "coordinates": [8.20799, 44.895776]}, "properties": {"comparison": 13.2287565553, "Name": "Asticalzature", "type": "SHOP_SHOES", "coord1": 44.895776, "coord2": 8.20799}}
,{"type": "Feature", "geometry": {"type": "Point", "coordinates": [13.079514, 54.3089612]}, "properties": {"comparison": 13.2287565553, "Name": "H\u00f6rakustik Wiesner", "type": "SHOP_HEARINGAIDS", "coord1": 54.3089612, "coord2": 13.079514}}
,{"type": "Feature", "geometry": {"type": "Point", "coordinates": [5.972714, 50.6605355]}, "properties": {"comparison": 13.2287565553, "Name": "Le temps d'un Sandwich", "type": "FOOD_CAFE", "coord1": 50.6605355, "coord2": 5.972714}}
,{"type": "Feature", "geometry": {"type": "Point", "coordinates": [13.0794916, 54.3087442]}, "properties": {"comparison": 13.2287565553, "Name": "Bowleros", "type": "SPORT_BOWLING", "coord1": 54.3087442, "coord2": 13.0794916}}
,{"type": "Feature", "geometry": {"type": "Point", "coordinates": [13.2607297, 53.5596527]}, "properties": {"comparison": 13.2664991614, "Name": "St. Johannis", "type": "POW_CHRISTIAN", "coord1": 53.5596527, "coord2": 13.2607297}}
,{"type": "Feature", "geometry": {"type": "Point", "coordinates": [16.6366572, 49.2025474]}, "properties": {"comparison": 13.2664991614, "Name": "Dr. Max", "type": "HEALTH_PHARMACY", "coord1": 49.2025474, "coord2": 16.6366572}}
,{"type": "Feature", "geometry": {"type": "Point", "coordinates": [13.0796092, 54.308944]}, "properties": {"comparison": 13.2664991614, "Name": "2 be Fashion", "type": "SHOP_CLOTHES", "coord1": 54.308944, "coord2": 13.0796092}}
,{"type": "Feature", "geometry": {"type": "Point", "coordinates": [9.8545159, 51.3425445]}, "properties": {"comparison": 13.2664991614, "Name": "Die Klappe", "type": "FOOD_RESTAURANT", "coord1": 51.3425445, "coord2": 9.8545159}}
,{"type": "Feature", "geometry": {"type": "Point", "coordinates": [13.2595186, 53.5600876]}, "properties": {"comparison": 13.2664991614, "Name": "Fangelturm", "type": "POI_TOWERLOOKOUT", "coord1": 53.5600876, "coord2": 13.2595186}}
,{"type": "Feature", "geometry": {"type": "Point", "coordinates": [13.2157779, 52.4394784]}, "properties": {"comparison": 13.2664991614, "Name": "Rewe", "type": "SHOP_SUPERMARKET", "coord1": 52.4394784, "coord2": 13.2157779}}
,{"type": "Feature", "geometry": {"type": "Point", "coordinates": [8.2080031, 44.8958879]}, "properties": {"comparison": 13.2664991614, "Name": "Pizza e...", "type": "SHOP_BAKERY", "coord1": 44.8958879, "coord2": 8.2080031}}
,{"type": "Feature", "geometry": {"type": "Point", "coordinates": [8.2079686, 44.8958403]}, "properties": {"comparison": 13.2664991614, "Name": "Bianco Latte", "type": "FOOD_CAFE", "coord1": 44.8958403, "coord2": 8.2079686}}
,{"type": "Feature", "geometry": {"type": "Point", "coordinates": [8.2073545, 44.8956338]}, "properties": {"comparison": 13.3041346957, "Name": "Gelateria Ferrara", "type": "FOOD_ICECREAM", "coord1": 44.8956338, "coord2": 8.2073545}}
,{"type": "Feature", "geometry": {"type": "Point", "coordinates": [13.2169963, 52.4396717]}, "properties": {"comparison": 13.3041346957, "Name": "Aldi", "type": "SHOP_SUPERMARKET", "coord1": 52.4396717, "coord2": 13.2169963}}
,{"type": "Feature", "geometry": {"type": "Point", "coordinates": [-0.1541825, 51.4415703]}, "properties": {"comparison": 13.3041346957, "Name": "Betfred", "type": "SHOP_DEPARTMENTSTORE", "coord1": 51.4415703, "coord2": -0.1541825}}
,{"type": "Feature", "geometry": {"type": "Point", "coordinates": [8.2074036, 44.8954012]}, "properties": {"comparison": 13.3041346957, "Name": "Hotel Cavour", "type": "ACCOMMO_HOTEL", "coord1": 44.8954012, "coord2": 8.2074036}}
,{"type": "Feature", "geometry": {"type": "Point", "coordinates": [-1.9825727, 43.3139882]}, "properties": {"comparison": 13.3041346957, "Name": "La Bella Easo", "type": "FOOD_CAFE", "coord1": 43.3139882, "coord2": -1.9825727}}
,{"type": "Feature", "geometry": {"type": "Point", "coordinates": [11.2227329, 48.1623549]}, "properties": {"comparison": 13.3041346957, "Name": "Aldi", "type": "SHOP_SUPERMARKET", "coord1": 48.1623549, "coord2": 11.2227329}}
,{"type": "Feature", "geometry": {"type": "Point", "coordinates": [10.9680377, 49.0290204]}, "properties": {"comparison": 13.3041346957, "Name": "Ashanti", "type": "FOOD_FASTFOOD", "coord1": 49.0290204, "coord2": 10.9680377}}
,{"type": "Feature", "geometry": {"type": "Point", "coordinates": [5.9745802, 50.6601728]}, "properties": {"comparison": 13.3416640641, "Name": "Royal Syndicat d'Initiative Welkenraedt", "type": "TOURIST_INFORMATION", "coord1": 50.6601728, "coord2": 5.9745802}}
,{"type": "Feature", "geometry": {"type": "Point", "coordinates": [7.6094635, 47.5923413]}, "properties": {"comparison": 13.3416640641, "Name": "Tedi", "type": "SHOP_CONVENIENCE", "coord1": 47.5923413, "coord2": 7.6094635}}
,{"type": "Feature", "geometry": {"type": "Point", "coordinates": [7.6097113, 47.5931246]}, "properties": {"comparison": 13.3416640641, "Name": "Delphi", "type": "FOOD_RESTAURANT", "coord1": 47.5931246, "coord2": 7.6097113}}
,{"type": "Feature", "geometry": {"type": "Point", "coordinates": [10.968537, 49.0286241]}, "properties": {"comparison": 13.3416640641, "Name": "Klier", "type": "SHOP_MUSIC", "coord1": 49.0286241, "coord2": 10.968537}}
,{"type": "Feature", "geometry": {"type": "Point", "coordinates": [8.1724756, 47.3904074]}, "properties": {"comparison": 13.3416640641, "Name": "Aicha\u2018s", "type": "FOOD_RESTAURANT", "coord1": 47.3904074, "coord2": 8.1724756}}
,{"type": "Feature", "geometry": {"type": "Point", "coordinates": [7.6094505, 47.5922065]}, "properties": {"comparison": 13.3416640641, "Name": "KiK", "type": "SHOP_CLOTHES", "coord1": 47.5922065, "coord2": 7.6094505}}
,{"type": "Feature", "geometry": {"type": "Point", "coordinates": [9.9757902, 52.379267]}, "properties": {"comparison": 13.3416640641, "Name": "Sozialkaufhaus", "type": "SHOP_DEPARTMENTSTORE", "coord1": 52.379267, "coord2": 9.9757902}}
,{"type": "Feature", "geometry": {"type": "Point", "coordinates": [16.3251385, 48.3100628]}, "properties": {"comparison": 13.3790881603, "Name": "Amon", "type": "HEALTH_VETERINARY", "coord1": 48.3100628, "coord2": 16.3251385}}
,{"type": "Feature", "geometry": {"type": "Point", "coordinates": [8.170637, 47.3898159]}, "properties": {"comparison": 13.3790881603, "Name": "Coop", "type": "SHOP_SUPERMARKET", "coord1": 47.3898159, "coord2": 8.170637}}
,{"type": "Feature", "geometry": {"type": "Point", "coordinates": [13.1520173, 47.3192638]}, "properties": {"comparison": 13.3790881603, "Name": "Handwerkershop", "type": "SHOP_DIY", "coord1": 47.3192638, "coord2": 13.1520173}}
,{"type": "Feature", "geometry": {"type": "Point", "coordinates": [6.9810311, 43.5490131]}, "properties": {"comparison": 13.3790881603, "Name": "\u00c9glise Sainte-Marguerite", "type": "POW_CHRISTIAN", "coord1": 43.5490131, "coord2": 6.9810311}}
,{"type": "Feature", "geometry": {"type": "Point", "coordinates": [6.9812241, 43.5491388]}, "properties": {"comparison": 13.3790881603, "Name": "La Licorne", "type": "TOURIST_THEATRE", "coord1": 43.5491388, "coord2": 6.9812241}}
,{"type": "Feature", "geometry": {"type": "Point", "coordinates": [12.5076092, 41.8937277]}, "properties": {"comparison": 13.3790881603, "Name": "Hotel Taormina", "type": "ACCOMMO_HOTEL", "coord1": 41.8937277, "coord2": 12.5076092}}
,{"type": "Feature", "geometry": {"type": "Point", "coordinates": [8.5299088, 52.0308241]}, "properties": {"comparison": 13.3790881603, "Name": "Forum", "type": "TOURIST_NIGHTCLUB", "coord1": 52.0308241, "coord2": 8.5299088}}
,{"type": "Feature", "geometry": {"type": "Point", "coordinates": [5.5642923, 50.6383986]}, "properties": {"comparison": 13.3790881603, "Name": "Vid\u00e9o game Manga", "type": "SHOP_DEPARTMENTSTORE", "coord1": 50.6383986, "coord2": 5.5642923}}
,{"type": "Feature", "geometry": {"type": "Point", "coordinates": [13.1520912, 47.3192173]}, "properties": {"comparison": 13.3790881603, "Name": "Med. Massagen Flei\u00dfner", "type": "SHOP_DEPARTMENTSTORE", "coord1": 47.3192173, "coord2": 13.1520912}}
,{"type": "Feature", "geometry": {"type": "Point", "coordinates": [2.7159028, 39.7666928]}, "properties": {"comparison": 13.3790881603, "Name": "cas Sarrier", "type": "SHOP_GIFT", "coord1": 39.7666928, "coord2": 2.7159028}}
,{"type": "Feature", "geometry": {"type": "Point", "coordinates": [2.7157557, 39.7667631]}, "properties": {"comparison": 13.3790881603, "Name": "Frau", "type": "SHOP_BAKERY", "coord1": 39.7667631, "coord2": 2.7157557}}
,{"type": "Feature", "geometry": {"type": "Point", "coordinates": [8.4905887, 50.0701207]}, "properties": {"comparison": 13.416407865, "Name": "Hattersheimer Pilsstubb", "type": "FOOD_PUB", "coord1": 50.0701207, "coord2": 8.4905887}}
,{"type": "Feature", "geometry": {"type": "Point", "coordinates": [9.9691713, 53.5642268]}, "properties": {"comparison": 13.416407865, "Name": "Sternschanze (Messe)", "type": "TRANSPORT_SUBWAY", "coord1": 53.5642268, "coord2": 9.9691713}}
,{"type": "Feature", "geometry": {"type": "Point", "coordinates": [16.6364198, 49.2026193]}, "properties": {"comparison": 13.416407865, "Name": "Vinot\u00e9ka Vinofol", "type": "SHOP_ALCOHOL", "coord1": 49.2026193, "coord2": 16.6364198}}
,{"type": "Feature", "geometry": {"type": "Point", "coordinates": [16.6364534, 49.2025956]}, "properties": {"comparison": 13.416407865, "Name": "Exchange", "type": "MONEY_EXCHANGE", "coord1": 49.2025956, "coord2": 16.6364534}}
,{"type": "Feature", "geometry": {"type": "Point", "coordinates": [-1.9819982, 43.3139573]}, "properties": {"comparison": 13.416407865, "Name": "Easo plaza", "type": "TOURIST_FOUNTAIN", "coord1": 43.3139573, "coord2": -1.9819982}}
,{"type": "Feature", "geometry": {"type": "Point", "coordinates": [-1.9820112, 43.3139669]}, "properties": {"comparison": 13.416407865, "Name": "Plaza Easo", "type": "LANDUSE_GRASS", "coord1": 43.3139669, "coord2": -1.9820112}}
,{"type": "Feature", "geometry": {"type": "Point", "coordinates": [16.6363514, 49.2026754]}, "properties": {"comparison": 13.416407865, "Name": "chov. pot\u0159.", "type": "SHOP_PET", "coord1": 49.2026754, "coord2": 16.6363514}}
,{"type": "Feature", "geometry": {"type": "Point", "coordinates": [13.0799134, 54.3092954]}, "properties": {"comparison": 13.416407865, "Name": "Orion", "type": "SHOP_DEPARTMENTSTORE", "coord1": 54.3092954, "coord2": 13.0799134}}
,{"type": "Feature", "geometry": {"type": "Point", "coordinates": [7.6092062, 47.592297]}, "properties": {"comparison": 13.416407865, "Name": "baby-walz", "type": "SHOP_TOYS", "coord1": 47.592297, "coord2": 7.6092062}}
,{"type": "Feature", "geometry": {"type": "Point", "coordinates": [7.6091305, 47.5923938]}, "properties": {"comparison": 13.416407865, "Name": "Rewe", "type": "SHOP_SUPERMARKET", "coord1": 47.5923938, "coord2": 7.6091305}}
,{"type": "Feature", "geometry": {"type": "Point", "coordinates": [-1.981053, 43.3132548]}, "properties": {"comparison": 13.4536240471, "Name": "Aita Karmeldarren eliza", "type": "POW_CHRISTIAN", "coord1": 43.3132548, "coord2": -1.981053}}
,{"type": "Feature", "geometry": {"type": "Point", "coordinates": [13.2156365, 52.4391584]}, "properties": {"comparison": 13.4536240471, "Name": "Hempel", "type": "SHOP_DEPARTMENTSTORE", "coord1": 52.4391584, "coord2": 13.2156365}}
,{"type": "Feature", "geometry": {"type": "Point", "coordinates": [-1.9810453, 43.3132399]}, "properties": {"comparison": 13.4536240471, "Name": "Padres Carmelitas", "type": "POW_CHRISTIAN", "coord1": 43.3132399, "coord2": -1.9810453}}
,{"type": "Feature", "geometry": {"type": "Point", "coordinates": [4.4696824, 51.1539453]}, "properties": {"comparison": 13.4536240471, "Name": "Sergeyssels Elektro", "type": "SHOP_HIFI", "coord1": 51.1539453, "coord2": 4.4696824}}
,{"type": "Feature", "geometry": {"type": "Point", "coordinates": [4.4714001, 52.0546878]}, "properties": {"comparison": 13.4536240471, "Name": "Total Carwash", "type": "TRANSPORT_RENTALCAR", "coord1": 52.0546878, "coord2": 4.4714001}}
,{"type": "Feature", "geometry": {"type": "Point", "coordinates": [0.6979776, 47.3886926]}, "properties": {"comparison": 13.4536240471, "Name": "Conseil des Prud'hommes", "type": "AMENITY_COURT", "coord1": 47.3886926, "coord2": 0.6979776}}
,{"type": "Feature", "geometry": {"type": "Point", "coordinates": [13.2148626, 52.4385664]}, "properties": {"comparison": 13.4536240471, "Name": "Sparkasse", "type": "MONEY_BANK", "coord1": 52.4385664, "coord2": 13.2148626}}
,{"type": "Feature", "geometry": {"type": "Point", "coordinates": [9.4457474, 51.3107916]}, "properties": {"comparison": 13.4536240471, "Name": "Platz des Gedenkens", "type": "TOURIST_MEMORIAL", "coord1": 51.3107916, "coord2": 9.4457474}}
,{"type": "Feature", "geometry": {"type": "Point", "coordinates": [13.2146175, 52.4391626]}, "properties": {"comparison": 13.4536240471, "Name": "Lindner Esskultur", "type": "SHOP_CONVENIENCE", "coord1": 52.4391626, "coord2": 13.2146175}}
,{"type": "Feature", "geometry": {"type": "Point", "coordinates": [13.2153565, 52.4391125]}, "properties": {"comparison": 13.4536240471, "Name": "Neue Apotheke am See", "type": "HEALTH_PHARMACY", "coord1": 52.4391125, "coord2": 13.2153565}}
,{"type": "Feature", "geometry": {"type": "Point", "coordinates": [13.2157948, 52.4391718]}, "properties": {"comparison": 13.4536240471, "Name": "Klier", "type": "SHOP_HAIRDRESSER", "coord1": 52.4391718, "coord2": 13.2157948}}
,{"type": "Feature", "geometry": {"type": "Point", "coordinates": [13.2153357, 52.439194]}, "properties": {"comparison": 13.4536240471, "Name": "Dahlback", "type": "SHOP_BAKERY", "coord1": 52.439194, "coord2": 13.2153357}}
,{"type": "Feature", "geometry": {"type": "Point", "coordinates": [7.6091023, 47.5922216]}, "properties": {"comparison": 13.4536240471, "Name": "Einkauf-Insel", "type": "SHOP_SUPERMARKET", "coord1": 47.5922216, "coord2": 7.6091023}}
,{"type": "Feature", "geometry": {"type": "Point", "coordinates": [13.2146898, 52.4390629]}, "properties": {"comparison": 13.4536240471, "Name": "Caf\u00e9 Schlacht", "type": "FOOD_CAFE", "coord1": 52.4390629, "coord2": 13.2146898}}
,{"type": "Feature", "geometry": {"type": "Point", "coordinates": [13.2147566, 52.4387973]}, "properties": {"comparison": 13.4536240471, "Name": "Sch\u00e4fer's", "type": "SHOP_BAKERY", "coord1": 52.4387973, "coord2": 13.2147566}}
,{"type": "Feature", "geometry": {"type": "Point", "coordinates": [8.744682, 47.1260504]}, "properties": {"comparison": 13.4907375632, "Name": "Restaurant Langr\u00fctig\u00e4rtli", "type": "FOOD_RESTAURANT", "coord1": 47.1260504, "coord2": 8.744682}}
,{"type": "Feature", "geometry": {"type": "Point", "coordinates": [17.1488744, 60.6772741]}, "properties": {"comparison": 13.4907375632, "Name": "Scandic CH", "type": "ACCOMMO_HOTEL", "coord1": 60.6772741, "coord2": 17.1488744}}
,{"type": "Feature", "geometry": {"type": "Point", "coordinates": [9.0867782, 47.3000968]}, "properties": {"comparison": 13.4907375632, "Name": "OVS", "type": "SHOP_CLOTHES", "coord1": 47.3000968, "coord2": 9.0867782}}
,{"type": "Feature", "geometry": {"type": "Point", "coordinates": [9.9981865, 53.5415554]}, "properties": {"comparison": 13.4907375632, "Name": "Hamburger Sparkasse", "type": "MONEY_BANK", "coord1": 53.5415554, "coord2": 9.9981865}}
,{"type": "Feature", "geometry": {"type": "Point", "coordinates": [5.5638154, 50.6382175]}, "properties": {"comparison": 13.4907375632, "Name": "O'Mamma", "type": "FOOD_FASTFOOD", "coord1": 50.6382175, "coord2": 5.5638154}}
,{"type": "Feature", "geometry": {"type": "Point", "coordinates": [9.0870046, 47.3000194]}, "properties": {"comparison": 13.4907375632, "Name": "Cemin", "type": "SHOP_DEPARTMENTSTORE", "coord1": 47.3000194, "coord2": 9.0870046}}
,{"type": "Feature", "geometry": {"type": "Point", "coordinates": [9.0889278, 47.2983341]}, "properties": {"comparison": 13.4907375632, "Name": "BWZ Wattwil", "type": "EDUCATION_SCHOOL", "coord1": 47.2983341, "coord2": 9.0889278}}
,{"type": "Feature", "geometry": {"type": "Point", "coordinates": [12.6391443, 47.8708945]}, "properties": {"comparison": 13.4907375632, "Name": "Weininger", "type": "SHOP_GREENGROCER", "coord1": 47.8708945, "coord2": 12.6391443}}
,{"type": "Feature", "geometry": {"type": "Point", "coordinates": [13.3711226, 52.5275595]}, "properties": {"comparison": 13.4907375632, "Name": "Sozialgericht Berlin", "type": "AMENITY_COURT", "coord1": 52.5275595, "coord2": 13.3711226}}
,{"type": "Feature", "geometry": {"type": "Point", "coordinates": [24.7394832, 42.1382766]}, "properties": {"comparison": 13.4907375632, "Name": "\u0426\u0435\u043d\u0442\u0440\u0430\u043b \u0424\u0430\u0440\u043c\u0430", "type": "HEALTH_PHARMACY", "coord1": 42.1382766, "coord2": 24.7394832}}
,{"type": "Feature", "geometry": {"type": "Point", "coordinates": [2.143225, 41.3777362]}, "properties": {"comparison": 13.4907375632, "Name": "Casinet d'Hostafrancs", "type": "TOURIST_THEATRE", "coord1": 41.3777362, "coord2": 2.143225}}
,{"type": "Feature", "geometry": {"type": "Point", "coordinates": [13.2162553, 52.4390168]}, "properties": {"comparison": 13.4907375632, "Name": "Racketprofis", "type": "SHOP_MOTORCYCLE", "coord1": 52.4390168, "coord2": 13.2162553}}
,{"type": "Feature", "geometry": {"type": "Point", "coordinates": [7.6103252, 47.5941517]}, "properties": {"comparison": 13.4907375632, "Name": "Esso", "type": "TRANSPORT_FUEL", "coord1": 47.5941517, "coord2": 7.6103252}}
,{"type": "Feature", "geometry": {"type": "Point", "coordinates": [13.2168923, 52.4388029]}, "properties": {"comparison": 13.4907375632, "Name": "Restaurant Claire", "type": "FOOD_RESTAURANT", "coord1": 52.4388029, "coord2": 13.2168923}}
,{"type": "Feature", "geometry": {"type": "Point", "coordinates": [13.2159281, 52.4391939]}, "properties": {"comparison": 13.4907375632, "Name": "W\u00f6rlitz", "type": "SHOP_DEPARTMENTSTORE", "coord1": 52.4391939, "coord2": 13.2159281}}
,{"type": "Feature", "geometry": {"type": "Point", "coordinates": [8.8544638, 47.1895866]}, "properties": {"comparison": 13.5277492585, "Name": "Oberdorf", "type": "POI_HAMLET", "coord1": 47.1895866, "coord2": 8.8544638}}
,{"type": "Feature", "geometry": {"type": "Point", "coordinates": [17.1498459, 60.676393]}, "properties": {"comparison": 13.5277492585, "Name": "ICA Spegeln", "type": "SHOP_SUPERMARKET", "coord1": 60.676393, "coord2": 17.1498459}}
,{"type": "Feature", "geometry": {"type": "Point", "coordinates": [6.0256629, 47.2464879]}, "properties": {"comparison": 13.5277492585, "Name": "EURO Textiles", "type": "SHOP_CLOTHES", "coord1": 47.2464879, "coord2": 6.0256629}}
,{"type": "Feature", "geometry": {"type": "Point", "coordinates": [13.5783121, 51.123971]}, "properties": {"comparison": 13.5646599663, "Name": "Stammbaum - Wirtschaft", "type": "FOOD_RESTAURANT", "coord1": 51.123971, "coord2": 13.5783121}}
,{"type": "Feature", "geometry": {"type": "Point", "coordinates": [11.4274587, 48.1196305]}, "properties": {"comparison": 13.5646599663, "Name": "B\u00e4ckerei Caf\u00e9 Ziegler", "type": "FOOD_CAFE", "coord1": 48.1196305, "coord2": 11.4274587}}
,{"type": "Feature", "geometry": {"type": "Point", "coordinates": [13.4811956, 51.1618759]}, "properties": {"comparison": 13.5646599663, "Name": "Kindertagesst\u00e4tte Sonnenschein", "type": "EDUCATION_NURSERY", "coord1": 51.1618759, "coord2": 13.4811956}}
,{"type": "Feature", "geometry": {"type": "Point", "coordinates": [9.0866152, 47.2994209]}, "properties": {"comparison": 13.5646599663, "Name": "Clientis", "type": "MONEY_BANK", "coord1": 47.2994209, "coord2": 9.0866152}}
,{"type": "Feature", "geometry": {"type": "Point", "coordinates": [9.0864879, 47.2993041]}, "properties": {"comparison": 13.5646599663, "Name": "Wattwil", "type": "TRANSPORT_STATION", "coord1": 47.2993041, "coord2": 9.0864879}}
,{"type": "Feature", "geometry": {"type": "Point", "coordinates": [9.0863237, 47.2997115]}, "properties": {"comparison": 13.5646599663, "Name": "Kiosk", "type": "SHOP_KIOSK", "coord1": 47.2997115, "coord2": 9.0863237}}
,{"type": "Feature", "geometry": {"type": "Point", "coordinates": [11.1341714, 49.4602481]}, "properties": {"comparison": 13.5646599663, "Name": "Sanit\u00e4r Heinze", "type": "SHOP_DEPARTMENTSTORE", "coord1": 49.4602481, "coord2": 11.1341714}}
,{"type": "Feature", "geometry": {"type": "Point", "coordinates": [9.0865454, 47.2995136]}, "properties": {"comparison": 13.5646599663, "Name": "Wattwil", "type": "TRANSPORT_STATION", "coord1": 47.2995136, "coord2": 9.0865454}}
,{"type": "Feature", "geometry": {"type": "Point", "coordinates": [9.0862411, 47.2998044]}, "properties": {"comparison": 13.5646599663, "Name": "Starbucks", "type": "FOOD_CAFE", "coord1": 47.2998044, "coord2": 9.0862411}}
,{"type": "Feature", "geometry": {"type": "Point", "coordinates": [9.086348, 47.2991957]}, "properties": {"comparison": 13.5646599663, "Name": "Wattwil", "type": "TRANSPORT_STATION", "coord1": 47.2991957, "coord2": 9.086348}}
,{"type": "Feature", "geometry": {"type": "Point", "coordinates": [11.4274179, 48.119526]}, "properties": {"comparison": 13.5646599663, "Name": "Th\u00fay Nails & Kosmetik", "type": "SHOP_HAIRDRESSER", "coord1": 48.119526, "coord2": 11.4274179}}
,{"type": "Feature", "geometry": {"type": "Point", "coordinates": [11.4274376, 48.1195809]}, "properties": {"comparison": 13.5646599663, "Name": "Gustosa Kebap-Haus \"Gr\u00e4felfinger Best D\u00f6ner\"", "type": "FOOD_FASTFOOD", "coord1": 48.1195809, "coord2": 11.4274376}}
,{"type": "Feature", "geometry": {"type": "Point", "coordinates": [11.4277366, 48.1197902]}, "properties": {"comparison": 13.5646599663, "Name": "Cecil", "type": "SHOP_CLOTHES", "coord1": 48.1197902, "coord2": 11.4277366}}
,{"type": "Feature", "geometry": {"type": "Point", "coordinates": [6.0887616, 50.7685435]}, "properties": {"comparison": 13.5646599663, "Name": "Lundia", "type": "SHOP_DEPARTMENTSTORE", "coord1": 50.7685435, "coord2": 6.0887616}}
,{"type": "Feature", "geometry": {"type": "Point", "coordinates": [9.0869934, 47.299803]}, "properties": {"comparison": 13.5646599663, "Name": "Apotheke Dr. B\u00fctikofer AG", "type": "HEALTH_PHARMACY", "coord1": 47.299803, "coord2": 9.0869934}}
,{"type": "Feature", "geometry": {"type": "Point", "coordinates": [9.0865581, 47.299481]}, "properties": {"comparison": 13.5646599663, "Name": "Bahnhof / CBT / 16", "type": "TRANSPORT_STATION", "coord1": 47.299481, "coord2": 9.0865581}}
,{"type": "Feature", "geometry": {"type": "Point", "coordinates": [1.7339901, 41.2189866]}, "properties": {"comparison": 13.5646599663, "Name": "Escola Oficial d'Idiomes Garraf", "type": "EDUCATION_SCHOOL", "coord1": 41.2189866, "coord2": 1.7339901}}
,{"type": "Feature", "geometry": {"type": "Point", "coordinates": [9.1794925, 48.7863363]}, "properties": {"comparison": 13.5646599663, "Name": "Hilti Center", "type": "SHOP_DIY", "coord1": 48.7863363, "coord2": 9.1794925}}
,{"type": "Feature", "geometry": {"type": "Point", "coordinates": [9.0861454, 47.2991945]}, "properties": {"comparison": 13.5646599663, "Name": "Wattwil", "type": "TRANSPORT_STATION", "coord1": 47.2991945, "coord2": 9.0861454}}
,{"type": "Feature", "geometry": {"type": "Point", "coordinates": [9.086292, 47.2991835]}, "properties": {"comparison": 13.5646599663, "Name": "Wattwil", "type": "TRANSPORT_STATION", "coord1": 47.2991835, "coord2": 9.086292}}
,{"type": "Feature", "geometry": {"type": "Point", "coordinates": [9.0872987, 47.2995054]}, "properties": {"comparison": 13.5646599663, "Name": "Mode Weber", "type": "SHOP_DEPARTMENTSTORE", "coord1": 47.2995054, "coord2": 9.0872987}}
,{"type": "Feature", "geometry": {"type": "Point", "coordinates": [11.4274036, 48.1194862]}, "properties": {"comparison": 13.5646599663, "Name": "Saskia Deiters Schmuck", "type": "SHOP_JEWELRY", "coord1": 48.1194862, "coord2": 11.4274036}}
,{"type": "Feature", "geometry": {"type": "Point", "coordinates": [12.9987969, 55.6113238]}, "properties": {"comparison": 13.5646599663, "Name": "Hertz", "type": "TRANSPORT_RENTALCAR", "coord1": 55.6113238, "coord2": 12.9987969}}
,{"type": "Feature", "geometry": {"type": "Point", "coordinates": [12.9987858, 55.6113652]}, "properties": {"comparison": 13.5646599663, "Name": "Avis", "type": "TRANSPORT_RENTALCAR", "coord1": 55.6113652, "coord2": 12.9987858}}
,{"type": "Feature", "geometry": {"type": "Point", "coordinates": [9.0864231, 47.2992948]},